{
"type": "FeatureCollection",
"features": [
{ "type": "Feature", "properties": { "AREA": 0, "PERIMETER": 0, "name": "三亚市", "mapgis_style": 1 }, "geometry": { "type": "Point", "coordinates": [ 109.513357866988571, 18.2382733141521243 ] } },
{ "type": "Feature", "properties": { "AREA": 0, "PERIMETER": 0, "name": "临沧", "mapgis_style": 1 }, "geometry": { "type": "Point", "coordinates": [ 100.088115020674039, 23.880495588961768 ] } },
{ "type": "Feature", "properties": { "AREA": 0, "PERIMETER": 0, "name": "普洱市", "mapgis_style": 1 }, "geometry": { "type": "Point", "coordinates": [ 100.975337171246139, 22.7938783656112953 ] } },
{ "type": "Feature", "properties": { "AREA": 0, "PERIMETER": 0, "name": "景洪市", "mapgis_style": 1 }, "geometry": { "type": "Point", "coordinates": [ 100.79396402379075, 22.0133701298671802 ] } },
{ "type": "Feature", "properties": { "AREA": 0, "PERIMETER": 0, "name": "蒙自市", "mapgis_style": 1 }, "geometry": { "type": "Point", "coordinates": [ 103.392966046516094, 23.3711524810878721 ] } },
{ "type": "Feature", "properties": { "AREA": 0, "PERIMETER": 0, "name": "百色市", "mapgis_style": 1 }, "geometry": { "type": "Point", "coordinates": [ 106.611717762500902, 23.9050120454648543 ] } },
{ "type": "Feature", "properties": { "AREA": 0, "PERIMETER": 0, "name": "贵港市", "mapgis_style": 1 }, "geometry": { "type": "Point", "coordinates": [ 109.608546729404694, 23.0995459553671019 ] } },
{ "type": "Feature", "properties": { "AREA": 0, "PERIMETER": 0, "name": "梧州市", "mapgis_style": 1 }, "geometry": { "type": "Point", "coordinates": [ 111.308716813622681, 23.4873573780534173 ] } },
{ "type": "Feature", "properties": { "AREA": 0, "PERIMETER": 0, "name": "肇庆市", "mapgis_style": 1 }, "geometry": { "type": "Point", "coordinates": [ 112.45185232061624, 23.0586834395083429 ] } },
{ "type": "Feature", "properties": { "AREA": 0, "PERIMETER": 0, "name": "清远市", "mapgis_style": 1 }, "geometry": { "type": "Point", "coordinates": [ 113.022317171968737, 23.7211888118348355 ] } },
{ "type": "Feature", "properties": { "AREA": 0, "PERIMETER": 0, "name": "东莞市", "mapgis_style": 1 }, "geometry": { "type": "Point", "coordinates": [ 113.750022192770203, 23.0470683351361387 ] } },
{ "type": "Feature", "properties": { "AREA": 0, "PERIMETER": 0, "name": "佛山市", "mapgis_style": 1 }, "geometry": { "type": "Point", "coordinates": [ 113.115967564928283, 23.0352325496730259 ] } },
{ "type": "Feature", "properties": { "AREA": 0, "PERIMETER": 0, "name": "玉林市", "mapgis_style": 1 }, "geometry": { "type": "Point", "coordinates": [ 110.145998396683581, 22.6325386522475789 ] } },
{ "type": "Feature", "properties": { "AREA": 0, "PERIMETER": 0, "name": "江门市", "mapgis_style": 1 }, "geometry": { "type": "Point", "coordinates": [ 113.086325741858786, 22.589857486225803 ] } },
{ "type": "Feature", "properties": { "AREA": 0, "PERIMETER": 0, "name": "中山市", "mapgis_style": 1 }, "geometry": { "type": "Point", "coordinates": [ 113.373792152554302, 22.5262455395821739 ] } },
{ "type": "Feature", "properties": { "AREA": 0, "PERIMETER": 0, "name": "珠海市", "mapgis_style": 1 }, "geometry": { "type": "Point", "coordinates": [ 113.571595992754041, 22.273125897295742 ] } },
{ "type": "Feature", "properties": { "AREA": 0, "PERIMETER": 0, "name": "澳门", "mapgis_style": 1 }, "geometry": { "type": "Point", "coordinates": [ 113.551815346762965, 22.2000424454908689 ] } },
{ "type": "Feature", "properties": { "AREA": 0, "PERIMETER": 0, "name": "钦州市", "mapgis_style": 1 }, "geometry": { "type": "Point", "coordinates": [ 108.614482418747343, 21.9518574931468038 ] } },
{ "type": "Feature", "properties": { "AREA": 0, "PERIMETER": 0, "name": "北海市", "mapgis_style": 1 }, "geometry": { "type": "Point", "coordinates": [ 109.121883375578435, 21.479677261286259 ] } },
{ "type": "Feature", "properties": { "AREA": 0, "PERIMETER": 0, "name": "茂名市", "mapgis_style": 1 }, "geometry": { "type": "Point", "coordinates": [ 110.893123789339612, 21.6734918439938546 ] } },
{ "type": "Feature", "properties": { "AREA": 0, "PERIMETER": 0, "name": "湛江市", "mapgis_style": 1 }, "geometry": { "type": "Point", "coordinates": [ 110.402761879513207, 21.1953257757279729 ] } },
{ "type": "Feature", "properties": { "AREA": 0, "PERIMETER": 0, "name": "阳江市", "mapgis_style": 1 }, "geometry": { "type": "Point", "coordinates": [ 111.959108303167255, 21.8458435279741465 ] } },
{ "type": "Feature", "properties": { "AREA": 0, "PERIMETER": 0, "name": "河源市", "mapgis_style": 1 }, "geometry": { "type": "Point", "coordinates": [ 114.691685990233296, 23.7372910961884003 ] } },
{ "type": "Feature", "properties": { "AREA": 0, "PERIMETER": 0, "name": "惠州市", "mapgis_style": 1 }, "geometry": { "type": "Point", "coordinates": [ 114.389647035450622, 23.0907556492133743 ] } },
{ "type": "Feature", "properties": { "AREA": 0, "PERIMETER": 0, "name": "揭阳市", "mapgis_style": 1 }, "geometry": { "type": "Point", "coordinates": [ 116.350033701698905, 23.5434243651408934 ] } },
{ "type": "Feature", "properties": { "AREA": 0, "PERIMETER": 0, "name": "汕头市", "mapgis_style": 1 }, "geometry": { "type": "Point", "coordinates": [ 116.683150714670745, 23.364398660716752 ] } },
{ "type": "Feature", "properties": { "AREA": 0, "PERIMETER": 0, "name": "深圳市", "mapgis_style": 1 }, "geometry": { "type": "Point", "coordinates": [ 114.111109077034641, 22.5535353480101897 ] } },
{ "type": "Feature", "properties": { "AREA": 0, "PERIMETER": 0, "name": "香港", "mapgis_style": 1 }, "geometry": { "type": "Point", "coordinates": [ 114.162189450139408, 22.2775185674910929 ] } },
{ "type": "Feature", "properties": { "AREA": 0, "PERIMETER": 0, "name": "汕尾市", "mapgis_style": 1 }, "geometry": { "type": "Point", "coordinates": [ 115.359718286499131, 22.7719215165307496 ] } },
{ "type": "Feature", "properties": { "AREA": 0, "PERIMETER": 0, "name": "嘉义市", "mapgis_style": 1 }, "geometry": { "type": "Point", "coordinates": [ 120.44176742598583, 23.4872272844822554 ] } },
{ "type": "Feature", "properties": { "AREA": 0, "PERIMETER": 0, "name": "台南市", "mapgis_style": 1 }, "geometry": { "type": "Point", "coordinates": [ 120.200609580157874, 23.0045734663045316 ] } },
{ "type": "Feature", "properties": { "AREA": 0, "PERIMETER": 0, "name": "屏东市", "mapgis_style": 1 }, "geometry": { "type": "Point", "coordinates": [ 120.485424474916996, 22.6828977356799086 ] } },
{ "type": "Feature", "properties": { "AREA": 0, "PERIMETER": 0, "name": "高雄市", "mapgis_style": 1 }, "geometry": { "type": "Point", "coordinates": [ 120.303490129209095, 22.6341795022036152 ] } },
{ "type": "Feature", "properties": { "AREA": 0, "PERIMETER": 0, "name": "香格里拉县", "mapgis_style": 1 }, "geometry": { "type": "Point", "coordinates": [ 99.7067710424613125, 27.8177855470945481 ] } },
{ "type": "Feature", "properties": { "AREA": 0, "PERIMETER": 0, "name": "丽江市", "mapgis_style": 1 }, "geometry": { "type": "Point", "coordinates": [ 100.235863690407029, 26.8751650841981302 ] } },
{ "type": "Feature", "properties": { "AREA": 0, "PERIMETER": 0, "name": "攀枝花市", "mapgis_style": 1 }, "geometry": { "type": "Point", "coordinates": [ 101.698059727560604, 26.5550091911158468 ] } },
{ "type": "Feature", "properties": { "AREA": 0, "PERIMETER": 0, "name": "保山市", "mapgis_style": 1 }, "geometry": { "type": "Point", "coordinates": [ 99.1667231260964996, 25.1129294871522646 ] } },
{ "type": "Feature", "properties": { "AREA": 0, "PERIMETER": 0, "name": "大理市", "mapgis_style": 1 }, "geometry": { "type": "Point", "coordinates": [ 100.226175549549509, 25.5909718267658057 ] } },
{ "type": "Feature", "properties": { "AREA": 0, "PERIMETER": 0, "name": "楚雄市", "mapgis_style": 1 }, "geometry": { "type": "Point", "coordinates": [ 101.542777735518641, 25.0335609097936675 ] } },
{ "type": "Feature", "properties": { "AREA": 0, "PERIMETER": 0, "name": "芒市", "mapgis_style": 1 }, "geometry": { "type": "Point", "coordinates": [ 98.5884568106833115, 24.4419997694009616 ] } },
{ "type": "Feature", "properties": { "AREA": 0, "PERIMETER": 0, "name": "西昌市", "mapgis_style": 1 }, "geometry": { "type": "Point", "coordinates": [ 102.266882263371414, 27.9003691084178804 ] } },
{ "type": "Feature", "properties": { "AREA": 0, "PERIMETER": 0, "name": "昭通市", "mapgis_style": 1 }, "geometry": { "type": "Point", "coordinates": [ 103.715228406176607, 27.3438185842725865 ] } },
{ "type": "Feature", "properties": { "AREA": 0, "PERIMETER": 0, "name": "遵义市", "mapgis_style": 1 }, "geometry": { "type": "Point", "coordinates": [ 106.931647738236947, 27.6961714746251673 ] } },
{ "type": "Feature", "properties": { "AREA": 0, "PERIMETER": 0, "name": "六盘水市", "mapgis_style": 1 }, "geometry": { "type": "Point", "coordinates": [ 104.873386920028182, 26.5780961794805535 ] } },
{ "type": "Feature", "properties": { "AREA": 0, "PERIMETER": 0, "name": "安顺市", "mapgis_style": 1 }, "geometry": { "type": "Point", "coordinates": [ 105.927882464437317, 26.2437652262930996 ] } },
{ "type": "Feature", "properties": { "AREA": 0, "PERIMETER": 0, "name": "凯里市", "mapgis_style": 1 }, "geometry": { "type": "Point", "coordinates": [ 107.977112417762967, 26.5921852347434395 ] } },
{ "type": "Feature", "properties": { "AREA": 0, "PERIMETER": 0, "name": "都匀市", "mapgis_style": 1 }, "geometry": { "type": "Point", "coordinates": [ 107.518820992035117, 26.2661749219389371 ] } },
{ "type": "Feature", "properties": { "AREA": 0, "PERIMETER": 0, "name": "曲靖市", "mapgis_style": 1 }, "geometry": { "type": "Point", "coordinates": [ 103.796751174289355, 25.4963498452713928 ] } },
{ "type": "Feature", "properties": { "AREA": 0, "PERIMETER": 0, "name": "兴义市", "mapgis_style": 1 }, "geometry": { "type": "Point", "coordinates": [ 104.896167526627465, 25.0878426722008996 ] } },
{ "type": "Feature", "properties": { "AREA": 0, "PERIMETER": 0, "name": "玉溪市", "mapgis_style": 1 }, "geometry": { "type": "Point", "coordinates": [ 102.537261941130296, 24.3559928261916347 ] } },
{ "type": "Feature", "properties": { "AREA": 0, "PERIMETER": 0, "name": "铜仁市", "mapgis_style": 1 }, "geometry": { "type": "Point", "coordinates": [ 109.192793620660126, 27.7230260811461342 ] } },
{ "type": "Feature", "properties": { "AREA": 0, "PERIMETER": 0, "name": "怀化市", "mapgis_style": 1 }, "geometry": { "type": "Point", "coordinates": [ 109.956932175523775, 27.5476545312632091 ] } },
{ "type": "Feature", "properties": { "AREA": 0, "PERIMETER": 0, "name": "娄底市", "mapgis_style": 1 }, "geometry": { "type": "Point", "coordinates": [ 111.992452713054149, 27.7423970897445749 ] } },
{ "type": "Feature", "properties": { "AREA": 0, "PERIMETER": 0, "name": "邵阳市", "mapgis_style": 1 }, "geometry": { "type": "Point", "coordinates": [ 111.475098842842726, 27.2498510392389868 ] } },
{ "type": "Feature", "properties": { "AREA": 0, "PERIMETER": 0, "name": "湘潭市", "mapgis_style": 1 }, "geometry": { "type": "Point", "coordinates": [ 112.91145570656029, 27.8732438316639239 ] } },
{ "type": "Feature", "properties": { "AREA": 0, "PERIMETER": 0, "name": "株洲市", "mapgis_style": 1 }, "geometry": { "type": "Point", "coordinates": [ 113.150211533575416, 27.8531008854711928 ] } },
{ "type": "Feature", "properties": { "AREA": 0, "PERIMETER": 0, "name": "萍乡市", "mapgis_style": 1 }, "geometry": { "type": "Point", "coordinates": [ 113.838857802060005, 27.6319627553476188 ] } },
{ "type": "Feature", "properties": { "AREA": 0, "PERIMETER": 0, "name": "永州市", "mapgis_style": 1 }, "geometry": { "type": "Point", "coordinates": [ 111.612719837103953, 26.2108535955475226 ] } },
{ "type": "Feature", "properties": { "AREA": 0, "PERIMETER": 0, "name": "衡阳市", "mapgis_style": 1 }, "geometry": { "type": "Point", "coordinates": [ 112.597225370890044, 26.9021437519395406 ] } },
{ "type": "Feature", "properties": { "AREA": 0, "PERIMETER": 0, "name": "桂林市", "mapgis_style": 1 }, "geometry": { "type": "Point", "coordinates": [ 110.286386170478721, 25.280557759319251 ] } },
{ "type": "Feature", "properties": { "AREA": 0, "PERIMETER": 0, "name": "郴州市", "mapgis_style": 1 }, "geometry": { "type": "Point", "coordinates": [ 113.025332762066256, 25.8032224020595784 ] } },
{ "type": "Feature", "properties": { "AREA": 0, "PERIMETER": 0, "name": "河池市", "mapgis_style": 1 }, "geometry": { "type": "Point", "coordinates": [ 108.049642228585839, 24.6945863264221082 ] } },
{ "type": "Feature", "properties": { "AREA": 0, "PERIMETER": 0, "name": "柳州市", "mapgis_style": 1 }, "geometry": { "type": "Point", "coordinates": [ 109.404503732718055, 24.3104670581785882 ] } },
{ "type": "Feature", "properties": { "AREA": 0, "PERIMETER": 0, "name": "贺州市", "mapgis_style": 1 }, "geometry": { "type": "Point", "coordinates": [ 111.534704034869975, 24.4177370530329867 ] } },
{ "type": "Feature", "properties": { "AREA": 0, "PERIMETER": 0, "name": "韶关市", "mapgis_style": 1 }, "geometry": { "type": "Point", "coordinates": [ 113.603623744127887, 24.8106907873102145 ] } },
{ "type": "Feature", "properties": { "AREA": 0, "PERIMETER": 0, "name": "新余市", "mapgis_style": 1 }, "geometry": { "type": "Point", "coordinates": [ 114.931385193072728, 27.8046143943034103 ] } },
{ "type": "Feature", "properties": { "AREA": 0, "PERIMETER": 0, "name": "宜春市", "mapgis_style": 1 }, "geometry": { "type": "Point", "coordinates": [ 114.376121518947514, 27.7948066946781438 ] } },
{ "type": "Feature", "properties": { "AREA": 0, "PERIMETER": 0, "name": "吉安市", "mapgis_style": 1 }, "geometry": { "type": "Point", "coordinates": [ 114.971523726886446, 27.1037640435017018 ] } },
{ "type": "Feature", "properties": { "AREA": 0, "PERIMETER": 0, "name": "抚州市", "mapgis_style": 1 }, "geometry": { "type": "Point", "coordinates": [ 116.351620754287865, 27.985319831678737 ] } },
{ "type": "Feature", "properties": { "AREA": 0, "PERIMETER": 0, "name": "三明市", "mapgis_style": 1 }, "geometry": { "type": "Point", "coordinates": [ 117.603423733512045, 26.2205498279837776 ] } },
{ "type": "Feature", "properties": { "AREA": 0, "PERIMETER": 0, "name": "南平市", "mapgis_style": 1 }, "geometry": { "type": "Point", "coordinates": [ 118.169499151053216, 26.6426793838837419 ] } },
{ "type": "Feature", "properties": { "AREA": 0, "PERIMETER": 0, "name": "宁德市", "mapgis_style": 1 }, "geometry": { "type": "Point", "coordinates": [ 119.517621560986697, 26.6617175942831643 ] } },
{ "type": "Feature", "properties": { "AREA": 0, "PERIMETER": 0, "name": "赣州市", "mapgis_style": 1 }, "geometry": { "type": "Point", "coordinates": [ 114.932718503592724, 25.847499563029217 ] } },
{ "type": "Feature", "properties": { "AREA": 0, "PERIMETER": 0, "name": "龙岩市", "mapgis_style": 1 }, "geometry": { "type": "Point", "coordinates": [ 117.029445496031784, 25.10420004851402 ] } },
{ "type": "Feature", "properties": { "AREA": 0, "PERIMETER": 0, "name": "莆田市", "mapgis_style": 1 }, "geometry": { "type": "Point", "coordinates": [ 119.011433610438075, 25.4344316655628759 ] } },
{ "type": "Feature", "properties": { "AREA": 0, "PERIMETER": 0, "name": "梅州市", "mapgis_style": 1 }, "geometry": { "type": "Point", "coordinates": [ 116.110760960715425, 24.3162458896911602 ] } },
{ "type": "Feature", "properties": { "AREA": 0, "PERIMETER": 0, "name": "漳州市", "mapgis_style": 1 }, "geometry": { "type": "Point", "coordinates": [ 117.653347707650553, 24.5122078620580908 ] } },
{ "type": "Feature", "properties": { "AREA": 0, "PERIMETER": 0, "name": "泉州市", "mapgis_style": 1 }, "geometry": { "type": "Point", "coordinates": [ 118.590221315903989, 24.9101095952246965 ] } },
{ "type": "Feature", "properties": { "AREA": 0, "PERIMETER": 0, "name": "厦门市", "mapgis_style": 1 }, "geometry": { "type": "Point", "coordinates": [ 118.086287538177686, 24.450860083600606 ] } },
{ "type": "Feature", "properties": { "AREA": 0, "PERIMETER": 0, "name": "基隆市", "mapgis_style": 1 }, "geometry": { "type": "Point", "coordinates": [ 121.738505957855992, 25.1324520058113912 ] } },
{ "type": "Feature", "properties": { "AREA": 0, "PERIMETER": 0, "name": "台中市", "mapgis_style": 1 }, "geometry": { "type": "Point", "coordinates": [ 120.671565982670515, 24.1428246433265841 ] } },
{ "type": "Feature", "properties": { "AREA": 0, "PERIMETER": 0, "name": "日喀则市", "mapgis_style": 1 }, "geometry": { "type": "Point", "coordinates": [ 88.8764261811324729, 29.2725994429424681 ] } },
{ "type": "Feature", "properties": { "AREA": 0, "PERIMETER": 0, "name": "林芝县", "mapgis_style": 1 }, "geometry": { "type": "Point", "coordinates": [ 94.4839787089876921, 29.5809116531678669 ] } },
{ "type": "Feature", "properties": { "AREA": 0, "PERIMETER": 0, "name": "昌都", "mapgis_style": 1 }, "geometry": { "type": "Point", "coordinates": [ 97.1659347443953862, 31.1437430461326805 ] } },
{ "type": "Feature", "properties": { "AREA": 0, "PERIMETER": 0, "name": "绵阳市", "mapgis_style": 1 }, "geometry": { "type": "Point", "coordinates": [ 104.749293453986297, 31.4596341080147148 ] } },
{ "type": "Feature", "properties": { "AREA": 0, "PERIMETER": 0, "name": "德阳市", "mapgis_style": 1 }, "geometry": { "type": "Point", "coordinates": [ 104.39099417571515, 31.1329925087006529 ] } },
{ "type": "Feature", "properties": { "AREA": 0, "PERIMETER": 0, "name": "巴中市", "mapgis_style": 1 }, "geometry": { "type": "Point", "coordinates": [ 106.754806081552118, 31.8496484896439966 ] } },
{ "type": "Feature", "properties": { "AREA": 0, "PERIMETER": 0, "name": "达县市", "mapgis_style": 1 }, "geometry": { "type": "Point", "coordinates": [ 107.500155044274848, 31.2275905709207322 ] } },
{ "type": "Feature", "properties": { "AREA": 0, "PERIMETER": 0, "name": "遂宁市", "mapgis_style": 1 }, "geometry": { "type": "Point", "coordinates": [ 105.570224679786165, 30.5045258718834269 ] } },
{ "type": "Feature", "properties": { "AREA": 0, "PERIMETER": 0, "name": "南充市", "mapgis_style": 1 }, "geometry": { "type": "Point", "coordinates": [ 106.080757943496124, 30.7995996931476483 ] } },
{ "type": "Feature", "properties": { "AREA": 0, "PERIMETER": 0, "name": "雅安市", "mapgis_style": 1 }, "geometry": { "type": "Point", "coordinates": [ 102.98431850695583, 29.9861528852645058 ] } },
{ "type": "Feature", "properties": { "AREA": 0, "PERIMETER": 0, "name": "乐山市", "mapgis_style": 1 }, "geometry": { "type": "Point", "coordinates": [ 103.751528296778858, 29.5712748536098715 ] } },
{ "type": "Feature", "properties": { "AREA": 0, "PERIMETER": 0, "name": "自贡市", "mapgis_style": 1 }, "geometry": { "type": "Point", "coordinates": [ 104.775984327763226, 29.3709080111815339 ] } },
{ "type": "Feature", "properties": { "AREA": 0, "PERIMETER": 0, "name": "内江市", "mapgis_style": 1 }, "geometry": { "type": "Point", "coordinates": [ 105.053891368747401, 29.5813442773458242 ] } },
{ "type": "Feature", "properties": { "AREA": 0, "PERIMETER": 0, "name": "宜宾市", "mapgis_style": 1 }, "geometry": { "type": "Point", "coordinates": [ 104.616350369282031, 28.7754049243008723 ] } },
{ "type": "Feature", "properties": { "AREA": 0, "PERIMETER": 0, "name": "泸州市", "mapgis_style": 1 }, "geometry": { "type": "Point", "coordinates": [ 105.437010987611728, 28.8849381408902381 ] } },
{ "type": "Feature", "properties": { "AREA": 0, "PERIMETER": 0, "name": "荆州市", "mapgis_style": 1 }, "geometry": { "type": "Point", "coordinates": [ 112.198606500688314, 31.0293391092211159 ] } },
{ "type": "Feature", "properties": { "AREA": 0, "PERIMETER": 0, "name": "恩施市", "mapgis_style": 1 }, "geometry": { "type": "Point", "coordinates": [ 109.478724846591703, 30.2728594029630962 ] } },
{ "type": "Feature", "properties": { "AREA": 0, "PERIMETER": 0, "name": "宜昌市", "mapgis_style": 1 }, "geometry": { "type": "Point", "coordinates": [ 111.287282165278128, 30.7048333369760442 ] } },
{ "type": "Feature", "properties": { "AREA": 0, "PERIMETER": 0, "name": "沙市市", "mapgis_style": 1 }, "geometry": { "type": "Point", "coordinates": [ 112.248885837935774, 30.3169076858570747 ] } },
{ "type": "Feature", "properties": { "AREA": 0, "PERIMETER": 0, "name": "孝感市", "mapgis_style": 1 }, "geometry": { "type": "Point", "coordinates": [ 113.910580332791056, 30.9268271354102566 ] } },
{ "type": "Feature", "properties": { "AREA": 0, "PERIMETER": 0, "name": "张家界市", "mapgis_style": 1 }, "geometry": { "type": "Point", "coordinates": [ 110.48484827960381, 29.1285288638615718 ] } },
{ "type": "Feature", "properties": { "AREA": 0, "PERIMETER": 0, "name": "常德市", "mapgis_style": 1 }, "geometry": { "type": "Point", "coordinates": [ 111.691468405270797, 29.0353789068010109 ] } },
{ "type": "Feature", "properties": { "AREA": 0, "PERIMETER": 0, "name": "岳阳市", "mapgis_style": 1 }, "geometry": { "type": "Point", "coordinates": [ 113.097864683249966, 29.3718357804632362 ] } },
{ "type": "Feature", "properties": { "AREA": 0, "PERIMETER": 0, "name": "吉首市", "mapgis_style": 1 }, "geometry": { "type": "Point", "coordinates": [ 109.73313795077911, 28.3109073606650661 ] } },
{ "type": "Feature", "properties": { "AREA": 0, "PERIMETER": 0, "name": "益阳市", "mapgis_style": 1 }, "geometry": { "type": "Point", "coordinates": [ 112.335473404820178, 28.5983707812705497 ] } },
{ "type": "Feature", "properties": { "AREA": 0, "PERIMETER": 0, "name": "麻城市", "mapgis_style": 1 }, "geometry": { "type": "Point", "coordinates": [ 115.031230130612855, 31.1815252258525994 ] } },
{ "type": "Feature", "properties": { "AREA": 0, "PERIMETER": 0, "name": "六安市", "mapgis_style": 1 }, "geometry": { "type": "Point", "coordinates": [ 116.494420370662525, 31.7552092137288859 ] } },
{ "type": "Feature", "properties": { "AREA": 0, "PERIMETER": 0, "name": "巢湖市", "mapgis_style": 1 }, "geometry": { "type": "Point", "coordinates": [ 117.865185123485247, 31.602342419358866 ] } },
{ "type": "Feature", "properties": { "AREA": 0, "PERIMETER": 0, "name": "马鞍山市", "mapgis_style": 1 }, "geometry": { "type": "Point", "coordinates": [ 118.483021709164831, 31.7258645693279497 ] } },
{ "type": "Feature", "properties": { "AREA": 0, "PERIMETER": 0, "name": "芜湖市", "mapgis_style": 1 }, "geometry": { "type": "Point", "coordinates": [ 118.362966589920433, 31.3355482435852295 ] } },
{ "type": "Feature", "properties": { "AREA": 0, "PERIMETER": 0, "name": "常州市", "mapgis_style": 1 }, "geometry": { "type": "Point", "coordinates": [ 119.95268993897497, 31.7833857816404226 ] } },
{ "type": "Feature", "properties": { "AREA": 0, "PERIMETER": 0, "name": "鄂州市", "mapgis_style": 1 }, "geometry": { "type": "Point", "coordinates": [ 114.880163308081919, 30.4033100407623849 ] } },
{ "type": "Feature", "properties": { "AREA": 0, "PERIMETER": 0, "name": "黄石市", "mapgis_style": 1 }, "geometry": { "type": "Point", "coordinates": [ 115.076917604140135, 30.2129896586161166 ] } },
{ "type": "Feature", "properties": { "AREA": 0, "PERIMETER": 0, "name": "铜陵市", "mapgis_style": 1 }, "geometry": { "type": "Point", "coordinates": [ 117.813840456503016, 30.9239960556263007 ] } },
{ "type": "Feature", "properties": { "AREA": 0, "PERIMETER": 0, "name": "贵池市", "mapgis_style": 1 }, "geometry": { "type": "Point", "coordinates": [ 117.482150701286926, 30.655249861809903 ] } },
{ "type": "Feature", "properties": { "AREA": 0, "PERIMETER": 0, "name": "安庆市", "mapgis_style": 1 }, "geometry": { "type": "Point", "coordinates": [ 117.034988656481062, 30.5128825583909524 ] } },
{ "type": "Feature", "properties": { "AREA": 0, "PERIMETER": 0, "name": "宣州市", "mapgis_style": 1 }, "geometry": { "type": "Point", "coordinates": [ 118.742854301390381, 30.9475310332473406 ] } },
{ "type": "Feature", "properties": { "AREA": 0, "PERIMETER": 0, "name": "咸宁市", "mapgis_style": 1 }, "geometry": { "type": "Point", "coordinates": [ 114.271856015220791, 29.8930624198239414 ] } },
{ "type": "Feature", "properties": { "AREA": 0, "PERIMETER": 0, "name": "九江市", "mapgis_style": 1 }, "geometry": { "type": "Point", "coordinates": [ 115.985958691620453, 29.7229390903385102 ] } },
{ "type": "Feature", "properties": { "AREA": 0, "PERIMETER": 0, "name": "景德镇市", "mapgis_style": 1 }, "geometry": { "type": "Point", "coordinates": [ 117.210597579966262, 29.2912043888625391 ] } },
{ "type": "Feature", "properties": { "AREA": 0, "PERIMETER": 0, "name": "黄山市", "mapgis_style": 1 }, "geometry": { "type": "Point", "coordinates": [ 118.309437085087708, 29.7162459995605417 ] } },
{ "type": "Feature", "properties": { "AREA": 0, "PERIMETER": 0, "name": "金华市", "mapgis_style": 1 }, "geometry": { "type": "Point", "coordinates": [ 119.650287387155998, 29.105261437172917 ] } },
{ "type": "Feature", "properties": { "AREA": 0, "PERIMETER": 0, "name": "上饶市", "mapgis_style": 1 }, "geometry": { "type": "Point", "coordinates": [ 117.965212475930358, 28.451233768585741 ] } },
{ "type": "Feature", "properties": { "AREA": 0, "PERIMETER": 0, "name": "鹰潭市", "mapgis_style": 1 }, "geometry": { "type": "Point", "coordinates": [ 117.032848572238507, 28.24166079377542 ] } },
{ "type": "Feature", "properties": { "AREA": 0, "PERIMETER": 0, "name": "衢州市", "mapgis_style": 1 }, "geometry": { "type": "Point", "coordinates": [ 118.867997234552774, 28.9573705879475973 ] } },
{ "type": "Feature", "properties": { "AREA": 0, "PERIMETER": 0, "name": "丽水市", "mapgis_style": 1 }, "geometry": { "type": "Point", "coordinates": [ 119.913380375778004, 28.4492671289903285 ] } },
{ "type": "Feature", "properties": { "AREA": 0, "PERIMETER": 0, "name": "无锡市", "mapgis_style": 1 }, "geometry": { "type": "Point", "coordinates": [ 120.29806759786895, 31.57521015771432 ] } },
{ "type": "Feature", "properties": { "AREA": 0, "PERIMETER": 0, "name": "苏州市", "mapgis_style": 1 }, "geometry": { "type": "Point", "coordinates": [ 120.619024253994937, 31.3132995361273707 ] } },
{ "type": "Feature", "properties": { "AREA": 0, "PERIMETER": 0, "name": "湖州市", "mapgis_style": 1 }, "geometry": { "type": "Point", "coordinates": [ 120.099698398659058, 30.8655468593839686 ] } },
{ "type": "Feature", "properties": { "AREA": 0, "PERIMETER": 0, "name": "嘉兴市", "mapgis_style": 1 }, "geometry": { "type": "Point", "coordinates": [ 120.753604414686208, 30.7680470614819797 ] } },
{ "type": "Feature", "properties": { "AREA": 0, "PERIMETER": 0, "name": "绍兴市", "mapgis_style": 1 }, "geometry": { "type": "Point", "coordinates": [ 120.578655523317295, 30.0050785681902461 ] } },
{ "type": "Feature", "properties": { "AREA": 0, "PERIMETER": 0, "name": "舟山市", "mapgis_style": 1 }, "geometry": { "type": "Point", "coordinates": [ 122.101533669563665, 30.0157167802848335 ] } },
{ "type": "Feature", "properties": { "AREA": 0, "PERIMETER": 0, "name": "宁波市", "mapgis_style": 1 }, "geometry": { "type": "Point", "coordinates": [ 121.543078808825342, 29.8668724411822311 ] } },
{ "type": "Feature", "properties": { "AREA": 0, "PERIMETER": 0, "name": "温州市", "mapgis_style": 1 }, "geometry": { "type": "Point", "coordinates": [ 120.653606122645201, 28.0188142845930024 ] } },
{ "type": "Feature", "properties": { "AREA": 0, "PERIMETER": 0, "name": "临夏市", "mapgis_style": 1 }, "geometry": { "type": "Point", "coordinates": [ 103.211120252337182, 35.6079937794604149 ] } },
{ "type": "Feature", "properties": { "AREA": 0, "PERIMETER": 0, "name": "平凉市", "mapgis_style": 1 }, "geometry": { "type": "Point", "coordinates": [ 106.685706826735071, 35.5365544373557682 ] } },
{ "type": "Feature", "properties": { "AREA": 0, "PERIMETER": 0, "name": "庆阳市", "mapgis_style": 1 }, "geometry": { "type": "Point", "coordinates": [ 107.638183507009202, 35.7372597556438976 ] } },
{ "type": "Feature", "properties": { "AREA": 0, "PERIMETER": 0, "name": "天水市", "mapgis_style": 1 }, "geometry": { "type": "Point", "coordinates": [ 105.716979626856727, 34.5861611549521086 ] } },
{ "type": "Feature", "properties": { "AREA": 0, "PERIMETER": 0, "name": "宝鸡市", "mapgis_style": 1 }, "geometry": { "type": "Point", "coordinates": [ 107.14043840346919, 34.3825545627790419 ] } },
{ "type": "Feature", "properties": { "AREA": 0, "PERIMETER": 0, "name": "汉中市", "mapgis_style": 1 }, "geometry": { "type": "Point", "coordinates": [ 107.035244439388975, 33.077143809310229 ] } },
{ "type": "Feature", "properties": { "AREA": 0, "PERIMETER": 0, "name": "广元市", "mapgis_style": 1 }, "geometry": { "type": "Point", "coordinates": [ 105.83301207221578, 32.4445367133655225 ] } },
{ "type": "Feature", "properties": { "AREA": 0, "PERIMETER": 0, "name": "铜川市", "mapgis_style": 1 }, "geometry": { "type": "Point", "coordinates": [ 109.058831905263489, 35.0768914809555596 ] } },
{ "type": "Feature", "properties": { "AREA": 0, "PERIMETER": 0, "name": "运城市", "mapgis_style": 1 }, "geometry": { "type": "Point", "coordinates": [ 110.993615003891762, 35.0150894638339665 ] } },
{ "type": "Feature", "properties": { "AREA": 0, "PERIMETER": 0, "name": "晋城市", "mapgis_style": 1 }, "geometry": { "type": "Point", "coordinates": [ 112.839377316067299, 35.5050163519929143 ] } },
{ "type": "Feature", "properties": { "AREA": 0, "PERIMETER": 0, "name": "新乡市", "mapgis_style": 1 }, "geometry": { "type": "Point", "coordinates": [ 113.868494987892717, 35.3106320785521604 ] } },
{ "type": "Feature", "properties": { "AREA": 0, "PERIMETER": 0, "name": "焦作市", "mapgis_style": 1 }, "geometry": { "type": "Point", "coordinates": [ 113.222657007262598, 35.2518255224433119 ] } },
{ "type": "Feature", "properties": { "AREA": 0, "PERIMETER": 0, "name": "咸阳市", "mapgis_style": 1 }, "geometry": { "type": "Point", "coordinates": [ 108.710051139865996, 34.3397363967656162 ] } },
{ "type": "Feature", "properties": { "AREA": 0, "PERIMETER": 0, "name": "渭南市", "mapgis_style": 1 }, "geometry": { "type": "Point", "coordinates": [ 109.501362999917973, 34.5036826865386175 ] } },
{ "type": "Feature", "properties": { "AREA": 0, "PERIMETER": 0, "name": "三门峡市", "mapgis_style": 1 }, "geometry": { "type": "Point", "coordinates": [ 111.204620049306797, 34.7691735930951822 ] } },
{ "type": "Feature", "properties": { "AREA": 0, "PERIMETER": 0, "name": "洛阳市", "mapgis_style": 1 }, "geometry": { "type": "Point", "coordinates": [ 112.382832053914569, 34.6659589409471494 ] } },
{ "type": "Feature", "properties": { "AREA": 0, "PERIMETER": 0, "name": "许昌市", "mapgis_style": 1 }, "geometry": { "type": "Point", "coordinates": [ 113.819988896760194, 34.0320581270630953 ] } },
{ "type": "Feature", "properties": { "AREA": 0, "PERIMETER": 0, "name": "商州市", "mapgis_style": 1 }, "geometry": { "type": "Point", "coordinates": [ 109.93259346678623, 33.870563624449197 ] } },
{ "type": "Feature", "properties": { "AREA": 0, "PERIMETER": 0, "name": "南阳市", "mapgis_style": 1 }, "geometry": { "type": "Point", "coordinates": [ 112.535671052314356, 33.0023277788040943 ] } },
{ "type": "Feature", "properties": { "AREA": 0, "PERIMETER": 0, "name": "平顶山市", "mapgis_style": 1 }, "geometry": { "type": "Point", "coordinates": [ 113.300733913302238, 33.7481908051760939 ] } },
{ "type": "Feature", "properties": { "AREA": 0, "PERIMETER": 0, "name": "安康市", "mapgis_style": 1 }, "geometry": { "type": "Point", "coordinates": [ 109.027077061732314, 32.6942754662968724 ] } },
{ "type": "Feature", "properties": { "AREA": 0, "PERIMETER": 0, "name": "十堰市", "mapgis_style": 1 }, "geometry": { "type": "Point", "coordinates": [ 110.784693631660076, 32.657358262907735 ] } },
{ "type": "Feature", "properties": { "AREA": 0, "PERIMETER": 0, "name": "丹江口市", "mapgis_style": 1 }, "geometry": { "type": "Point", "coordinates": [ 111.50801251184518, 32.5463767820942707 ] } },
{ "type": "Feature", "properties": { "AREA": 0, "PERIMETER": 0, "name": "襄樊市", "mapgis_style": 1 }, "geometry": { "type": "Point", "coordinates": [ 112.139347799068389, 32.0498526541249475 ] } },
{ "type": "Feature", "properties": { "AREA": 0, "PERIMETER": 0, "name": "鹤壁市", "mapgis_style": 1 }, "geometry": { "type": "Point", "coordinates": [ 114.173925746866786, 35.904762852615697 ] } },
{ "type": "Feature", "properties": { "AREA": 0, "PERIMETER": 0, "name": "菏泽市", "mapgis_style": 1 }, "geometry": { "type": "Point", "coordinates": [ 115.44441801731675, 35.250938525890831 ] } },
{ "type": "Feature", "properties": { "AREA": 0, "PERIMETER": 0, "name": "濮阳市", "mapgis_style": 1 }, "geometry": { "type": "Point", "coordinates": [ 115.006208175898479, 35.7549816365367477 ] } },
{ "type": "Feature", "properties": { "AREA": 0, "PERIMETER": 0, "name": "济宁市", "mapgis_style": 1 }, "geometry": { "type": "Point", "coordinates": [ 116.578189862258867, 35.4111170516051033 ] } },
{ "type": "Feature", "properties": { "AREA": 0, "PERIMETER": 0, "name": "临沂市", "mapgis_style": 1 }, "geometry": { "type": "Point", "coordinates": [ 118.341316200621804, 35.0722331225282886 ] } },
{ "type": "Feature", "properties": { "AREA": 0, "PERIMETER": 0, "name": "日照市", "mapgis_style": 1 }, "geometry": { "type": "Point", "coordinates": [ 119.546810923504097, 35.3938555549259348 ] } },
{ "type": "Feature", "properties": { "AREA": 0, "PERIMETER": 0, "name": "开封市", "mapgis_style": 1 }, "geometry": { "type": "Point", "coordinates": [ 114.343585963540548, 34.7861575751626617 ] } },
{ "type": "Feature", "properties": { "AREA": 0, "PERIMETER": 0, "name": "商丘市", "mapgis_style": 1 }, "geometry": { "type": "Point", "coordinates": [ 115.646359933798905, 34.4483322047065386 ] } },
{ "type": "Feature", "properties": { "AREA": 0, "PERIMETER": 0, "name": "枣庄市", "mapgis_style": 1 }, "geometry": { "type": "Point", "coordinates": [ 117.560133885668563, 34.8730931418812915 ] } },
{ "type": "Feature", "properties": { "AREA": 0, "PERIMETER": 0, "name": "徐州市", "mapgis_style": 1 }, "geometry": { "type": "Point", "coordinates": [ 117.188010696044856, 34.2702956547837161 ] } },
{ "type": "Feature", "properties": { "AREA": 0, "PERIMETER": 0, "name": "连云港市", "mapgis_style": 1 }, "geometry": { "type": "Point", "coordinates": [ 119.171345948784889, 34.605312720955915 ] } },
{ "type": "Feature", "properties": { "AREA": 0, "PERIMETER": 0, "name": "周口市", "mapgis_style": 1 }, "geometry": { "type": "Point", "coordinates": [ 114.63559928635523, 33.6301580398271369 ] } },
{ "type": "Feature", "properties": { "AREA": 0, "PERIMETER": 0, "name": "漯河市", "mapgis_style": 1 }, "geometry": { "type": "Point", "coordinates": [ 114.040493138184615, 33.5741285268045786 ] } },
{ "type": "Feature", "properties": { "AREA": 0, "PERIMETER": 0, "name": "淮北市", "mapgis_style": 1 }, "geometry": { "type": "Point", "coordinates": [ 116.789888517327924, 33.971906158571791 ] } },
{ "type": "Feature", "properties": { "AREA": 0, "PERIMETER": 0, "name": "宿州市", "mapgis_style": 1 }, "geometry": { "type": "Point", "coordinates": [ 116.971721772843836, 33.6430180606376936 ] } },
{ "type": "Feature", "properties": { "AREA": 0, "PERIMETER": 0, "name": "宿迁市", "mapgis_style": 1 }, "geometry": { "type": "Point", "coordinates": [ 118.297418806288761, 33.9589534842160674 ] } },
{ "type": "Feature", "properties": { "AREA": 0, "PERIMETER": 0, "name": "淮阴市", "mapgis_style": 1 }, "geometry": { "type": "Point", "coordinates": [ 119.017065895910932, 33.5889973903561838 ] } },
{ "type": "Feature", "properties": { "AREA": 0, "PERIMETER": 0, "name": "驻马店市", "mapgis_style": 1 }, "geometry": { "type": "Point", "coordinates": [ 114.035030800564869, 32.976822716233265 ] } },
{ "type": "Feature", "properties": { "AREA": 0, "PERIMETER": 0, "name": "信阳市", "mapgis_style": 1 }, "geometry": { "type": "Point", "coordinates": [ 114.069478661300721, 32.1317478240250978 ] } },
{ "type": "Feature", "properties": { "AREA": 0, "PERIMETER": 0, "name": "阜阳市", "mapgis_style": 1 }, "geometry": { "type": "Point", "coordinates": [ 115.809297496003296, 32.9036962310877712 ] } },
{ "type": "Feature", "properties": { "AREA": 0, "PERIMETER": 0, "name": "蚌埠市", "mapgis_style": 1 }, "geometry": { "type": "Point", "coordinates": [ 117.362958688116322, 32.9418698441926523 ] } },
{ "type": "Feature", "properties": { "AREA": 0, "PERIMETER": 0, "name": "淮南市", "mapgis_style": 1 }, "geometry": { "type": "Point", "coordinates": [ 117.022058145575755, 32.6193696381915785 ] } },
{ "type": "Feature", "properties": { "AREA": 0, "PERIMETER": 0, "name": "滁州市", "mapgis_style": 1 }, "geometry": { "type": "Point", "coordinates": [ 118.304510182636236, 32.3176130190583137 ] } },
{ "type": "Feature", "properties": { "AREA": 0, "PERIMETER": 0, "name": "泰州市", "mapgis_style": 1 }, "geometry": { "type": "Point", "coordinates": [ 119.911633055758514, 32.4964881130164471 ] } },
{ "type": "Feature", "properties": { "AREA": 0, "PERIMETER": 0, "name": "扬州市", "mapgis_style": 1 }, "geometry": { "type": "Point", "coordinates": [ 119.437570105574551, 32.3918860191381981 ] } },
{ "type": "Feature", "properties": { "AREA": 0, "PERIMETER": 0, "name": "镇江市", "mapgis_style": 1 }, "geometry": { "type": "Point", "coordinates": [ 119.444669237769176, 32.2071023231582885 ] } },
{ "type": "Feature", "properties": { "AREA": 0, "PERIMETER": 0, "name": "盐城市", "mapgis_style": 1 }, "geometry": { "type": "Point", "coordinates": [ 120.134124243406916, 33.3857947348045272 ] } },
{ "type": "Feature", "properties": { "AREA": 0, "PERIMETER": 0, "name": "南通市", "mapgis_style": 1 }, "geometry": { "type": "Point", "coordinates": [ 120.855054566852289, 32.0110733609577451 ] } },
{ "type": "Feature", "properties": { "AREA": 0, "PERIMETER": 0, "name": "喀什市", "mapgis_style": 1 }, "geometry": { "type": "Point", "coordinates": [ 75.9857710477949837, 39.4671036920335609 ] } },
{ "type": "Feature", "properties": { "AREA": 0, "PERIMETER": 0, "name": "和田市", "mapgis_style": 1 }, "geometry": { "type": "Point", "coordinates": [ 79.9273910988267318, 37.106570743904733 ] } },
{ "type": "Feature", "properties": { "AREA": 0, "PERIMETER": 0, "name": "嘉峪关市", "mapgis_style": 1 }, "geometry": { "type": "Point", "coordinates": [ 98.2727191220682386, 39.8032349519776218 ] } },
{ "type": "Feature", "properties": { "AREA": 0, "PERIMETER": 0, "name": "酒泉市", "mapgis_style": 1 }, "geometry": { "type": "Point", "coordinates": [ 98.5110603701094902, 39.7457243339975008 ] } },
{ "type": "Feature", "properties": { "AREA": 0, "PERIMETER": 0, "name": "张掖市", "mapgis_style": 1 }, "geometry": { "type": "Point", "coordinates": [ 100.449786632842006, 38.9338831679290323 ] } },
{ "type": "Feature", "properties": { "AREA": 0, "PERIMETER": 0, "name": "德令哈市", "mapgis_style": 1 }, "geometry": { "type": "Point", "coordinates": [ 97.355753753613314, 37.3693908633669665 ] } },
{ "type": "Feature", "properties": { "AREA": 0, "PERIMETER": 0, "name": "乌海市", "mapgis_style": 1 }, "geometry": { "type": "Point", "coordinates": [ 106.818073962544872, 39.672501626378498 ] } },
{ "type": "Feature", "properties": { "AREA": 0, "PERIMETER": 0, "name": "石嘴山市", "mapgis_style": 1 }, "geometry": { "type": "Point", "coordinates": [ 106.379720518791544, 39.0224385848214084 ] } },
{ "type": "Feature", "properties": { "AREA": 0, "PERIMETER": 0, "name": "金昌市", "mapgis_style": 1 }, "geometry": { "type": "Point", "coordinates": [ 102.165357482099822, 38.4926006477061762 ] } },
{ "type": "Feature", "properties": { "AREA": 0, "PERIMETER": 0, "name": "武威市", "mapgis_style": 1 }, "geometry": { "type": "Point", "coordinates": [ 102.634631763600055, 37.9276712361678392 ] } },
{ "type": "Feature", "properties": { "AREA": 0, "PERIMETER": 0, "name": "白银市", "mapgis_style": 1 }, "geometry": { "type": "Point", "coordinates": [ 104.174166691555683, 36.5469923912726529 ] } },
{ "type": "Feature", "properties": { "AREA": 0, "PERIMETER": 0, "name": "东胜区", "mapgis_style": 1 }, "geometry": { "type": "Point", "coordinates": [ 110.000778696178898, 39.8170631674446938 ] } },
{ "type": "Feature", "properties": { "AREA": 0, "PERIMETER": 0, "name": "朔州市", "mapgis_style": 1 }, "geometry": { "type": "Point", "coordinates": [ 112.421738666444682, 39.3088392324445337 ] } },
{ "type": "Feature", "properties": { "AREA": 0, "PERIMETER": 0, "name": "榆林市", "mapgis_style": 1 }, "geometry": { "type": "Point", "coordinates": [ 109.754007896401916, 38.2954657762607908 ] } },
{ "type": "Feature", "properties": { "AREA": 0, "PERIMETER": 0, "name": "忻州市", "mapgis_style": 1 }, "geometry": { "type": "Point", "coordinates": [ 112.731424411774057, 38.3993173411479702 ] } },
{ "type": "Feature", "properties": { "AREA": 0, "PERIMETER": 0, "name": "晋中市", "mapgis_style": 1 }, "geometry": { "type": "Point", "coordinates": [ 112.744902209283495, 37.6792075763938215 ] } },
{ "type": "Feature", "properties": { "AREA": 0, "PERIMETER": 0, "name": "阳泉市", "mapgis_style": 1 }, "geometry": { "type": "Point", "coordinates": [ 113.573096602826311, 37.8618301050379316 ] } },
{ "type": "Feature", "properties": { "AREA": 0, "PERIMETER": 0, "name": "延安市", "mapgis_style": 1 }, "geometry": { "type": "Point", "coordinates": [ 109.47003618786232, 36.5925334735419696 ] } },
{ "type": "Feature", "properties": { "AREA": 0, "PERIMETER": 0, "name": "临汾市", "mapgis_style": 1 }, "geometry": { "type": "Point", "coordinates": [ 111.515612341138393, 36.0787492619196897 ] } },
{ "type": "Feature", "properties": { "AREA": 0, "PERIMETER": 0, "name": "长治市", "mapgis_style": 1 }, "geometry": { "type": "Point", "coordinates": [ 113.103717018133395, 36.1842479498824332 ] } },
{ "type": "Feature", "properties": { "AREA": 0, "PERIMETER": 0, "name": "廊坊市", "mapgis_style": 1 }, "geometry": { "type": "Point", "coordinates": [ 116.692464927397523, 39.5197383069134887 ] } },
{ "type": "Feature", "properties": { "AREA": 0, "PERIMETER": 0, "name": "唐山市", "mapgis_style": 1 }, "geometry": { "type": "Point", "coordinates": [ 118.192769444310315, 39.6213967820484214 ] } },
{ "type": "Feature", "properties": { "AREA": 0, "PERIMETER": 0, "name": "秦皇岛市", "mapgis_style": 1 }, "geometry": { "type": "Point", "coordinates": [ 119.596072588485114, 39.9265988203218782 ] } },
{ "type": "Feature", "properties": { "AREA": 0, "PERIMETER": 0, "name": "保定市", "mapgis_style": 1 }, "geometry": { "type": "Point", "coordinates": [ 115.502396693878666, 38.8564566565780041 ] } },
{ "type": "Feature", "properties": { "AREA": 0, "PERIMETER": 0, "name": "沧州市", "mapgis_style": 1 }, "geometry": { "type": "Point", "coordinates": [ 116.862313064042468, 38.3097428772853235 ] } },
{ "type": "Feature", "properties": { "AREA": 0, "PERIMETER": 0, "name": "邢台市", "mapgis_style": 1 }, "geometry": { "type": "Point", "coordinates": [ 114.494529539240418, 37.0670814558967976 ] } },
{ "type": "Feature", "properties": { "AREA": 0, "PERIMETER": 0, "name": "衡水市", "mapgis_style": 1 }, "geometry": { "type": "Point", "coordinates": [ 115.706036948290446, 37.7268955582001695 ] } },
{ "type": "Feature", "properties": { "AREA": 0, "PERIMETER": 0, "name": "德州市", "mapgis_style": 1 }, "geometry": { "type": "Point", "coordinates": [ 116.287732095161843, 37.4523714511376014 ] } },
{ "type": "Feature", "properties": { "AREA": 0, "PERIMETER": 0, "name": "东营市", "mapgis_style": 1 }, "geometry": { "type": "Point", "coordinates": [ 118.495594576591117, 37.4605266843589533 ] } },
{ "type": "Feature", "properties": { "AREA": 0, "PERIMETER": 0, "name": "邯郸市", "mapgis_style": 1 }, "geometry": { "type": "Point", "coordinates": [ 114.472306903728267, 36.594190402471007 ] } },
{ "type": "Feature", "properties": { "AREA": 0, "PERIMETER": 0, "name": "安阳市", "mapgis_style": 1 }, "geometry": { "type": "Point", "coordinates": [ 114.345761309529806, 36.0990491639062085 ] } },
{ "type": "Feature", "properties": { "AREA": 0, "PERIMETER": 0, "name": "聊城市", "mapgis_style": 1 }, "geometry": { "type": "Point", "coordinates": [ 115.988998669239081, 36.4484470982947855 ] } },
{ "type": "Feature", "properties": { "AREA": 0, "PERIMETER": 0, "name": "泰安市", "mapgis_style": 1 }, "geometry": { "type": "Point", "coordinates": [ 117.127529023067481, 36.1896982924609887 ] } },
{ "type": "Feature", "properties": { "AREA": 0, "PERIMETER": 0, "name": "潍坊市", "mapgis_style": 1 }, "geometry": { "type": "Point", "coordinates": [ 119.106897004704962, 36.7034067139809679 ] } },
{ "type": "Feature", "properties": { "AREA": 0, "PERIMETER": 0, "name": "淄博市", "mapgis_style": 1 }, "geometry": { "type": "Point", "coordinates": [ 118.058748311108189, 36.7927535459780799 ] } },
{ "type": "Feature", "properties": { "AREA": 0, "PERIMETER": 0, "name": "大连市", "mapgis_style": 1 }, "geometry": { "type": "Point", "coordinates": [ 121.590802773844331, 38.9129187840422759 ] } },
{ "type": "Feature", "properties": { "AREA": 0, "PERIMETER": 0, "name": "青岛市", "mapgis_style": 1 }, "geometry": { "type": "Point", "coordinates": [ 120.347167259446707, 36.0792784055209879 ] } },
{ "type": "Feature", "properties": { "AREA": 0, "PERIMETER": 0, "name": "威海市", "mapgis_style": 1 }, "geometry": { "type": "Point", "coordinates": [ 122.108746399536173, 37.5016224933590934 ] } },
{ "type": "Feature", "properties": { "AREA": 0, "PERIMETER": 0, "name": "烟台市", "mapgis_style": 1 }, "geometry": { "type": "Point", "coordinates": [ 121.379766229675582, 37.5347156483665714 ] } },
{ "type": "Feature", "properties": { "AREA": 0, "PERIMETER": 0, "name": "伊宁市", "mapgis_style": 1 }, "geometry": { "type": "Point", "coordinates": [ 81.319239774689521, 43.9161419891288816 ] } },
{ "type": "Feature", "properties": { "AREA": 0, "PERIMETER": 0, "name": "吐鲁番市", "mapgis_style": 1 }, "geometry": { "type": "Point", "coordinates": [ 89.1806821035870882, 42.9411106823551876 ] } },
{ "type": "Feature", "properties": { "AREA": 0, "PERIMETER": 0, "name": "哈密市", "mapgis_style": 1 }, "geometry": { "type": "Point", "coordinates": [ 93.5183648603293278, 42.8198867910583303 ] } },
{ "type": "Feature", "properties": { "AREA": 0, "PERIMETER": 0, "name": "临河区", "mapgis_style": 1 }, "geometry": { "type": "Point", "coordinates": [ 107.397132444731042, 40.7619725956395555 ] } },
{ "type": "Feature", "properties": { "AREA": 0, "PERIMETER": 0, "name": "集宁区", "mapgis_style": 1 }, "geometry": { "type": "Point", "coordinates": [ 113.096495391530908, 41.0294207961166038 ] } },
{ "type": "Feature", "properties": { "AREA": 0, "PERIMETER": 0, "name": "包头市", "mapgis_style": 1 }, "geometry": { "type": "Point", "coordinates": [ 109.748903211647786, 40.6612182678777287 ] } },
{ "type": "Feature", "properties": { "AREA": 0, "PERIMETER": 0, "name": "大同市", "mapgis_style": 1 }, "geometry": { "type": "Point", "coordinates": [ 113.296637535666633, 40.0936229410684319 ] } },
{ "type": "Feature", "properties": { "AREA": 0, "PERIMETER": 0, "name": "赤峰市", "mapgis_style": 1 }, "geometry": { "type": "Point", "coordinates": [ 118.952880385948035, 42.2697966522614976 ] } },
{ "type": "Feature", "properties": { "AREA": 0, "PERIMETER": 0, "name": "张家口市", "mapgis_style": 1 }, "geometry": { "type": "Point", "coordinates": [ 114.886238184140765, 40.7920497053866811 ] } },
{ "type": "Feature", "properties": { "AREA": 0, "PERIMETER": 0, "name": "承德市", "mapgis_style": 1 }, "geometry": { "type": "Point", "coordinates": [ 117.9202401062782, 40.966580836928209 ] } },
{ "type": "Feature", "properties": { "AREA": 0, "PERIMETER": 0, "name": "通辽市", "mapgis_style": 1 }, "geometry": { "type": "Point", "coordinates": [ 122.26106343951291, 43.6116747400818241 ] } },
{ "type": "Feature", "properties": { "AREA": 0, "PERIMETER": 0, "name": "四平市", "mapgis_style": 1 }, "geometry": { "type": "Point", "coordinates": [ 124.376014044414092, 43.1678685322230535 ] } },
{ "type": "Feature", "properties": { "AREA": 0, "PERIMETER": 0, "name": "阜新市", "mapgis_style": 1 }, "geometry": { "type": "Point", "coordinates": [ 121.648630119068756, 42.010074907962192 ] } },
{ "type": "Feature", "properties": { "AREA": 0, "PERIMETER": 0, "name": "铁岭市", "mapgis_style": 1 }, "geometry": { "type": "Point", "coordinates": [ 123.84842913071266, 42.2962927524143808 ] } },
{ "type": "Feature", "properties": { "AREA": 0, "PERIMETER": 0, "name": "辽源市", "mapgis_style": 1 }, "geometry": { "type": "Point", "coordinates": [ 125.13755448436919, 42.911309555899031 ] } },
{ "type": "Feature", "properties": { "AREA": 0, "PERIMETER": 0, "name": "朝阳市", "mapgis_style": 1 }, "geometry": { "type": "Point", "coordinates": [ 120.451250474402315, 41.5808696675197567 ] } },
{ "type": "Feature", "properties": { "AREA": 0, "PERIMETER": 0, "name": "锦州市", "mapgis_style": 1 }, "geometry": { "type": "Point", "coordinates": [ 121.1357971673783, 41.1136339436242082 ] } },
{ "type": "Feature", "properties": { "AREA": 0, "PERIMETER": 0, "name": "盘锦市", "mapgis_style": 1 }, "geometry": { "type": "Point", "coordinates": [ 122.071115041845104, 41.1216245755114542 ] } },
{ "type": "Feature", "properties": { "AREA": 0, "PERIMETER": 0, "name": "抚顺市", "mapgis_style": 1 }, "geometry": { "type": "Point", "coordinates": [ 123.7894229324923, 41.8467919041743315 ] } },
{ "type": "Feature", "properties": { "AREA": 0, "PERIMETER": 0, "name": "本溪市", "mapgis_style": 1 }, "geometry": { "type": "Point", "coordinates": [ 123.764226808807194, 41.2908778747258935 ] } },
{ "type": "Feature", "properties": { "AREA": 0, "PERIMETER": 0, "name": "辽阳市", "mapgis_style": 1 }, "geometry": { "type": "Point", "coordinates": [ 123.168528917318156, 41.2666186229169085 ] } },
{ "type": "Feature", "properties": { "AREA": 0, "PERIMETER": 0, "name": "鞍山市", "mapgis_style": 1 }, "geometry": { "type": "Point", "coordinates": [ 123.021293805262331, 41.1857619114371261 ] } },
{ "type": "Feature", "properties": { "AREA": 0, "PERIMETER": 0, "name": "通化市", "mapgis_style": 1 }, "geometry": { "type": "Point", "coordinates": [ 125.921765162436074, 41.7242913891159972 ] } },
{ "type": "Feature", "properties": { "AREA": 0, "PERIMETER": 0, "name": "葫芦岛市", "mapgis_style": 1 }, "geometry": { "type": "Point", "coordinates": [ 120.849415779261989, 40.7567716933146471 ] } },
{ "type": "Feature", "properties": { "AREA": 0, "PERIMETER": 0, "name": "营口市", "mapgis_style": 1 }, "geometry": { "type": "Point", "coordinates": [ 122.228175774892591, 40.6694984537213173 ] } },
{ "type": "Feature", "properties": { "AREA": 0, "PERIMETER": 0, "name": "丹东市", "mapgis_style": 1 }, "geometry": { "type": "Point", "coordinates": [ 124.384253959346424, 40.1362391251128443 ] } },
{ "type": "Feature", "properties": { "AREA": 0, "PERIMETER": 0, "name": "吉林市", "mapgis_style": 1 }, "geometry": { "type": "Point", "coordinates": [ 126.566749460448293, 43.9085457128806453 ] } },
{ "type": "Feature", "properties": { "AREA": 0, "PERIMETER": 0, "name": "延吉市", "mapgis_style": 1 }, "geometry": { "type": "Point", "coordinates": [ 129.510936081336752, 42.9110342767705362 ] } },
{ "type": "Feature", "properties": { "AREA": 0, "PERIMETER": 0, "name": "白山市", "mapgis_style": 1 }, "geometry": { "type": "Point", "coordinates": [ 126.421302203305885, 41.927108019768923 ] } },
{ "type": "Feature", "properties": { "AREA": 0, "PERIMETER": 0, "name": "阿勒泰市", "mapgis_style": 1 }, "geometry": { "type": "Point", "coordinates": [ 88.1420504316440514, 47.853929964455908 ] } },
{ "type": "Feature", "properties": { "AREA": 0, "PERIMETER": 0, "name": "克拉玛依市", "mapgis_style": 1 }, "geometry": { "type": "Point", "coordinates": [ 84.8640531776710105, 45.5917618760890733 ] } },
{ "type": "Feature", "properties": { "AREA": 0, "PERIMETER": 0, "name": "奎屯市", "mapgis_style": 1 }, "geometry": { "type": "Point", "coordinates": [ 84.8956377475517741, 44.4241816748157845 ] } },
{ "type": "Feature", "properties": { "AREA": 0, "PERIMETER": 0, "name": "石河子市", "mapgis_style": 1 }, "geometry": { "type": "Point", "coordinates": [ 86.0331716410799316, 44.2940168440366833 ] } },
{ "type": "Feature", "properties": { "AREA": 0, "PERIMETER": 0, "name": "昌吉市", "mapgis_style": 1 }, "geometry": { "type": "Point", "coordinates": [ 87.3066521775808582, 44.0186997726831279 ] } },
{ "type": "Feature", "properties": { "AREA": 0, "PERIMETER": 0, "name": "齐齐哈尔市", "mapgis_style": 1 }, "geometry": { "type": "Point", "coordinates": [ 123.964477789571106, 47.3458684689864455 ] } },
{ "type": "Feature", "properties": { "AREA": 0, "PERIMETER": 0, "name": "乌兰浩特市", "mapgis_style": 1 }, "geometry": { "type": "Point", "coordinates": [ 122.069711640872796, 46.064057634820557 ] } },
{ "type": "Feature", "properties": { "AREA": 0, "PERIMETER": 0, "name": "大庆市", "mapgis_style": 1 }, "geometry": { "type": "Point", "coordinates": [ 125.02580336844909, 46.5930197096572343 ] } },
{ "type": "Feature", "properties": { "AREA": 0, "PERIMETER": 0, "name": "白城市", "mapgis_style": 1 }, "geometry": { "type": "Point", "coordinates": [ 122.841761813911148, 45.6131369304506222 ] } },
{ "type": "Feature", "properties": { "AREA": 0, "PERIMETER": 0, "name": "松原市", "mapgis_style": 1 }, "geometry": { "type": "Point", "coordinates": [ 124.822679996251992, 45.1734334334526011 ] } },
{ "type": "Feature", "properties": { "AREA": 0, "PERIMETER": 0, "name": "鹤岗市", "mapgis_style": 1 }, "geometry": { "type": "Point", "coordinates": [ 130.293184190717511, 47.3465258596923775 ] } },
{ "type": "Feature", "properties": { "AREA": 0, "PERIMETER": 0, "name": "伊春市", "mapgis_style": 1 }, "geometry": { "type": "Point", "coordinates": [ 128.904675017016274, 47.7233660555153847 ] } },
{ "type": "Feature", "properties": { "AREA": 0, "PERIMETER": 0, "name": "牡丹江市", "mapgis_style": 1 }, "geometry": { "type": "Point", "coordinates": [ 129.596591235291385, 44.581431329754011 ] } },
{ "type": "Feature", "properties": { "AREA": 0, "PERIMETER": 0, "name": "绥化市", "mapgis_style": 1 }, "geometry": { "type": "Point", "coordinates": [ 126.982467170859138, 46.6384105413810843 ] } },
{ "type": "Feature", "properties": { "AREA": 0, "PERIMETER": 0, "name": "佳木斯市", "mapgis_style": 1 }, "geometry": { "type": "Point", "coordinates": [ 130.365448092119806, 46.8100172649838058 ] } },
{ "type": "Feature", "properties": { "AREA": 0, "PERIMETER": 0, "name": "双鸭山市", "mapgis_style": 1 }, "geometry": { "type": "Point", "coordinates": [ 131.156760536878863, 46.6382444581598321 ] } },
{ "type": "Feature", "properties": { "AREA": 0, "PERIMETER": 0, "name": "七台河市", "mapgis_style": 1 }, "geometry": { "type": "Point", "coordinates": [ 130.878628840720324, 45.8078603208972055 ] } },
{ "type": "Feature", "properties": { "AREA": 0, "PERIMETER": 0, "name": "鸡西市", "mapgis_style": 1 }, "geometry": { "type": "Point", "coordinates": [ 130.951543359994758, 45.2967919295360133 ] } },
{ "type": "Feature", "properties": { "AREA": 0, "PERIMETER": 0, "name": "海拉尔区", "mapgis_style": 1 }, "geometry": { "type": "Point", "coordinates": [ 119.731635343995336, 49.2076380114184531 ] } },
{ "type": "Feature", "properties": { "AREA": 0, "PERIMETER": 0, "name": "黑河市", "mapgis_style": 1 }, "geometry": { "type": "Point", "coordinates": [ 127.395883798699401, 50.2086488652211642 ] } },
{ "type": "Feature", "properties": { "AREA": 0, "PERIMETER": 0, "name": "泽当", "mapgis_style": 1 }, "geometry": { "type": "Point", "coordinates": [ 91.780223463648511, 29.24297180852491 ] } },
{ "type": "Feature", "properties": { "AREA": 0, "PERIMETER": 0, "name": "文山市", "mapgis_style": 1 }, "geometry": { "type": "Point", "coordinates": [ 104.23553221798619, 23.3765934677542582 ] } },
{ "type": "Feature", "properties": { "AREA": 0, "PERIMETER": 0, "name": "潮州市", "mapgis_style": 1 }, "geometry": { "type": "Point", "coordinates": [ 116.63693078567816, 23.6681560133968247 ] } },
{ "type": "Feature", "properties": { "AREA": 0, "PERIMETER": 0, "name": "那曲", "mapgis_style": 1 }, "geometry": { "type": "Point", "coordinates": [ 92.0559074487042182, 31.4807957056749146 ] } },
{ "type": "Feature", "properties": { "AREA": 0, "PERIMETER": 0, "name": "玛沁县", "mapgis_style": 1 }, "geometry": { "type": "Point", "coordinates": [ 100.246060164491837, 34.4747097799754911 ] } },
{ "type": "Feature", "properties": { "AREA": 0, "PERIMETER": 0, "name": "合作市", "mapgis_style": 1 }, "geometry": { "type": "Point", "coordinates": [ 102.901742208731832, 34.989496511610767 ] } },
{ "type": "Feature", "properties": { "AREA": 0, "PERIMETER": 0, "name": "同仁县", "mapgis_style": 1 }, "geometry": { "type": "Point", "coordinates": [ 102.008806953819388, 35.5121650783719787 ] } },
{ "type": "Feature", "properties": { "AREA": 0, "PERIMETER": 0, "name": "定西县", "mapgis_style": 1 }, "geometry": { "type": "Point", "coordinates": [ 104.620299445180038, 35.575800593428859 ] } },
{ "type": "Feature", "properties": { "AREA": 0, "PERIMETER": 0, "name": "固原县", "mapgis_style": 1 }, "geometry": { "type": "Point", "coordinates": [ 106.278135772555245, 36.0148119290429776 ] } },
{ "type": "Feature", "properties": { "AREA": 0, "PERIMETER": 0, "name": "莱芜市", "mapgis_style": 1 }, "geometry": { "type": "Point", "coordinates": [ 117.662083929145638, 36.2058136919237796 ] } },
{ "type": "Feature", "properties": { "AREA": 0, "PERIMETER": 0, "name": "门源回族自治县", "mapgis_style": 1 }, "geometry": { "type": "Point", "coordinates": [ 101.615003225836119, 37.3747577889678197 ] } },
{ "type": "Feature", "properties": { "AREA": 0, "PERIMETER": 0, "name": "平安县", "mapgis_style": 1 }, "geometry": { "type": "Point", "coordinates": [ 102.104678362390672, 36.497837322828012 ] } },
{ "type": "Feature", "properties": { "AREA": 0, "PERIMETER": 0, "name": "共和县", "mapgis_style": 1 }, "geometry": { "type": "Point", "coordinates": [ 100.616136848934772, 36.2808095469574354 ] } },
{ "type": "Feature", "properties": { "AREA": 0, "PERIMETER": 0, "name": "吕梁市", "mapgis_style": 1 }, "geometry": { "type": "Point", "coordinates": [ 111.135355661962436, 37.5108455962914178 ] } },
{ "type": "Feature", "properties": { "AREA": 0, "PERIMETER": 0, "name": "阿拉善左旗", "mapgis_style": 1 }, "geometry": { "type": "Point", "coordinates": [ 105.665589490149628, 38.8426173953425007 ] } },
{ "type": "Feature", "properties": { "AREA": 0, "PERIMETER": 0, "name": "库尔勒市", "mapgis_style": 1 }, "geometry": { "type": "Point", "coordinates": [ 86.1356867009225056, 41.7575678675143678 ] } },
{ "type": "Feature", "properties": { "AREA": 0, "PERIMETER": 0, "name": "锡林浩特市", "mapgis_style": 1 }, "geometry": { "type": "Point", "coordinates": [ 116.069562233527066, 43.9460983104986909 ] } },
{ "type": "Feature", "properties": { "AREA": 0, "PERIMETER": 0, "name": "塔城市", "mapgis_style": 1 }, "geometry": { "type": "Point", "coordinates": [ 82.984469270232097, 46.7491152124667266 ] } },
{ "type": "Feature", "properties": { "AREA": 0, "PERIMETER": 0, "name": "博乐市", "mapgis_style": 1 }, "geometry": { "type": "Point", "coordinates": [ 82.0724699401228861, 44.9074485222825288 ] } },
{ "type": "Feature", "properties": { "AREA": 0, "PERIMETER": 0, "name": "阿克苏市", "mapgis_style": 1 }, "geometry": { "type": "Point", "coordinates": [ 80.26008548522708, 41.1676000267287918 ] } },
{ "type": "Feature", "properties": { "AREA": 0, "PERIMETER": 0, "name": "阿图什市", "mapgis_style": 1 }, "geometry": { "type": "Point", "coordinates": [ 76.1676046405599863, 39.7160918152936731 ] } },
{ "type": "Feature", "properties": { "AREA": 0, "PERIMETER": 0, "name": "噶尔市", "mapgis_style": 1 }, "geometry": { "type": "Point", "coordinates": [ 80.0895683656106314, 32.5047259213448712 ] } },
{ "type": "Feature", "properties": { "AREA": 0, "PERIMETER": 0, "name": "康定县", "mapgis_style": 1 }, "geometry": { "type": "Point", "coordinates": [ 101.958412233596022, 30.0531435027397364 ] } },
{ "type": "Feature", "properties": { "AREA": 0, "PERIMETER": 0, "name": "马尔康县", "mapgis_style": 1 }, "geometry": { "type": "Point", "coordinates": [ 102.23371729857034, 31.9116420767283593 ] } },
{ "type": "Feature", "properties": { "AREA": 0, "PERIMETER": 0, "name": "毕节", "mapgis_style": 1 }, "geometry": { "type": "Point", "coordinates": [ 105.284006980798026, 27.3086240860829079 ] } },
{ "type": "Feature", "properties": { "AREA": 0, "PERIMETER": 0, "name": "玉树县", "mapgis_style": 1 }, "geometry": { "type": "Point", "coordinates": [ 97.0150609963617541, 33.0038718109894234 ] } },
{ "type": "Feature", "properties": { "AREA": 0, "PERIMETER": 0, "name": "成县", "mapgis_style": 1 }, "geometry": { "type": "Point", "coordinates": [ 105.73033973625536, 33.7442375495425608 ] } },
{ "type": "Feature", "properties": { "AREA": 0, "PERIMETER": 0, "name": "吴忠市", "mapgis_style": 1 }, "geometry": { "type": "Point", "coordinates": [ 106.195524525392216, 37.9869269747523575 ] } },
{ "type": "Feature", "properties": { "AREA": 0, "PERIMETER": 0, "name": "台州市", "mapgis_style": 1 }, "geometry": { "type": "Point", "coordinates": [ 121.44754152381654, 28.673011122862448 ] } },
{ "type": "Feature", "properties": { "AREA": 0, "PERIMETER": 0, "name": "滨州市", "mapgis_style": 1 }, "geometry": { "type": "Point", "coordinates": [ 118.024120723722206, 37.3688487385502768 ] } },
{ "type": "Feature", "properties": { "AREA": 0, "PERIMETER": 0, "name": "资阳市", "mapgis_style": 1 }, "geometry": { "type": "Point", "coordinates": [ 104.650181044523734, 30.1232712120343074 ] } },
{ "type": "Feature", "properties": { "AREA": 0, "PERIMETER": 0, "name": "广州市", "mapgis_style": 1 }, "geometry": { "type": "Point", "coordinates": [ 113.256261057862858, 23.1350722826246447 ] } },
{ "type": "Feature", "properties": { "AREA": 0, "PERIMETER": 0, "name": "南宁市", "mapgis_style": 1 }, "geometry": { "type": "Point", "coordinates": [ 108.312146418715542, 22.8065943391121806 ] } },
{ "type": "Feature", "properties": { "AREA": 0, "PERIMETER": 0, "name": "海口市", "mapgis_style": 1 }, "geometry": { "type": "Point", "coordinates": [ 110.339798583113989, 20.0341810367832807 ] } },
{ "type": "Feature", "properties": { "AREA": 0, "PERIMETER": 0, "name": "贵阳市", "mapgis_style": 1 }, "geometry": { "type": "Point", "coordinates": [ 106.709151575091539, 26.5813058402913391 ] } },
{ "type": "Feature", "properties": { "AREA": 0, "PERIMETER": 0, "name": "昆明市", "mapgis_style": 1 }, "geometry": { "type": "Point", "coordinates": [ 102.710295496883703, 25.046410099922408 ] } },
{ "type": "Feature", "properties": { "AREA": 0, "PERIMETER": 0, "name": "福州市", "mapgis_style": 1 }, "geometry": { "type": "Point", "coordinates": [ 119.317463718407353, 26.0370617166913689 ] } },
{ "type": "Feature", "properties": { "AREA": 0, "PERIMETER": 0, "name": "台北市", "mapgis_style": 1 }, "geometry": { "type": "Point", "coordinates": [ 121.515660319351596, 25.0509263686169845 ] } },
{ "type": "Feature", "properties": { "AREA": 0, "PERIMETER": 0, "name": "拉萨市", "mapgis_style": 1 }, "geometry": { "type": "Point", "coordinates": [ 91.1341172899298471, 29.6529145974083441 ] } },
{ "type": "Feature", "properties": { "AREA": 0, "PERIMETER": 0, "name": "重庆市", "mapgis_style": 1 }, "geometry": { "type": "Point", "coordinates": [ 106.44498670345402, 29.5909921776637361 ] } },
{ "type": "Feature", "properties": { "AREA": 0, "PERIMETER": 0, "name": "成都市", "mapgis_style": 1 }, "geometry": { "type": "Point", "coordinates": [ 104.077976212615852, 30.6509957474192909 ] } },
{ "type": "Feature", "properties": { "AREA": 0, "PERIMETER": 0, "name": "长沙市", "mapgis_style": 1 }, "geometry": { "type": "Point", "coordinates": [ 112.978328279708577, 28.1987502926757969 ] } },
{ "type": "Feature", "properties": { "AREA": 0, "PERIMETER": 0, "name": "合肥市", "mapgis_style": 1 }, "geometry": { "type": "Point", "coordinates": [ 117.276781179739658, 31.8650697585880529 ] } },
{ "type": "Feature", "properties": { "AREA": 0, "PERIMETER": 0, "name": "武汉市", "mapgis_style": 1 }, "geometry": { "type": "Point", "coordinates": [ 114.274658497659715, 30.5856493474146802 ] } },
{ "type": "Feature", "properties": { "AREA": 0, "PERIMETER": 0, "name": "南昌市", "mapgis_style": 1 }, "geometry": { "type": "Point", "coordinates": [ 115.897992301063766, 28.6754502176299262 ] } },
{ "type": "Feature", "properties": { "AREA": 0, "PERIMETER": 0, "name": "上海市", "mapgis_style": 1 }, "geometry": { "type": "Point", "coordinates": [ 121.459765181819492, 31.2307250756191053 ] } },
{ "type": "Feature", "properties": { "AREA": 0, "PERIMETER": 0, "name": "杭州市", "mapgis_style": 1 }, "geometry": { "type": "Point", "coordinates": [ 120.169006893438819, 30.2946961450580865 ] } },
{ "type": "Feature", "properties": { "AREA": 0, "PERIMETER": 0, "name": "西安市", "mapgis_style": 1 }, "geometry": { "type": "Point", "coordinates": [ 108.94431740147823, 34.2672857116587295 ] } },
{ "type": "Feature", "properties": { "AREA": 0, "PERIMETER": 0, "name": "郑州市", "mapgis_style": 1 }, "geometry": { "type": "Point", "coordinates": [ 113.6415467121858, 34.7587578561623545 ] } },
{ "type": "Feature", "properties": { "AREA": 0, "PERIMETER": 0, "name": "南京市", "mapgis_style": 1 }, "geometry": { "type": "Point", "coordinates": [ 118.769350861642607, 32.0531749741124656 ] } },
{ "type": "Feature", "properties": { "AREA": 0, "PERIMETER": 0, "name": "西宁市", "mapgis_style": 1 }, "geometry": { "type": "Point", "coordinates": [ 101.783849160833711, 36.6095832009480304 ] } },
{ "type": "Feature", "properties": { "AREA": 0, "PERIMETER": 0, "name": "银川市", "mapgis_style": 1 }, "geometry": { "type": "Point", "coordinates": [ 106.274007078472863, 38.4677361095156485 ] } },
{ "type": "Feature", "properties": { "AREA": 0, "PERIMETER": 0, "name": "兰州市", "mapgis_style": 1 }, "geometry": { "type": "Point", "coordinates": [ 103.847107715815525, 36.0477486134503664 ] } },
{ "type": "Feature", "properties": { "AREA": 0, "PERIMETER": 0, "name": "太原市", "mapgis_style": 1 }, "geometry": { "type": "Point", "coordinates": [ 112.5650477466463, 37.8744977106042811 ] } },
{ "type": "Feature", "properties": { "AREA": 0, "PERIMETER": 0, "name": "北京市", "mapgis_style": 1 }, "geometry": { "type": "Point", "coordinates": [ 116.368337723708706, 39.9322001188403206 ] } },
{ "type": "Feature", "properties": { "AREA": 0, "PERIMETER": 0, "name": "济南市", "mapgis_style": 1 }, "geometry": { "type": "Point", "coordinates": [ 117.001827984479405, 36.6508396395075522 ] } },
{ "type": "Feature", "properties": { "AREA": 0, "PERIMETER": 0, "name": "石家庄市", "mapgis_style": 1 }, "geometry": { "type": "Point", "coordinates": [ 114.489070500850843, 38.0434740540544283 ] } },
{ "type": "Feature", "properties": { "AREA": 0, "PERIMETER": 0, "name": "天津市", "mapgis_style": 1 }, "geometry": { "type": "Point", "coordinates": [ 117.188177190579097, 39.1377264024753444 ] } },
{ "type": "Feature", "properties": { "AREA": 0, "PERIMETER": 0, "name": "乌鲁木齐市", "mapgis_style": 1 }, "geometry": { "type": "Point", "coordinates": [ 87.6035156344568122, 43.7915402581742654 ] } },
{ "type": "Feature", "properties": { "AREA": 0, "PERIMETER": 0, "name": "呼和浩特市", "mapgis_style": 1 }, "geometry": { "type": "Point", "coordinates": [ 111.664361379261777, 40.8162849453355392 ] } },
{ "type": "Feature", "properties": { "AREA": 0, "PERIMETER": 0, "name": "长春市", "mapgis_style": 1 }, "geometry": { "type": "Point", "coordinates": [ 125.309970517501256, 43.8852299396184904 ] } },
{ "type": "Feature", "properties": { "AREA": 0, "PERIMETER": 0, "name": "沈阳市", "mapgis_style": 1 }, "geometry": { "type": "Point", "coordinates": [ 123.420441338184091, 41.7890268448795226 ] } },
{ "type": "Feature", "properties": { "AREA": 0, "PERIMETER": 0, "name": "哈尔滨市", "mapgis_style": 1 }, "geometry": { "type": "Point", "coordinates": [ 126.646184666001659, 45.7431643251025264 ] } },
{ "type": "Feature", "properties": { "AREA": 0, "PERIMETER": 0, "name": "塔河", "mapgis_style": 1 }, "geometry": { "type": "Point", "coordinates": [ 124.706530785667653, 52.3412792512356688 ] } },
{ "type": "Feature", "properties": { "AREA": 0, "PERIMETER": 0, "name": "济源市", "mapgis_style": 1 }, "geometry": { "type": "Point", "coordinates": [ 112.582878886877268, 35.0931288789078693 ] } },
{ "type": "Feature", "properties": { "AREA": 0, "PERIMETER": 0, "name": "宜兴市", "mapgis_style": 1 }, "geometry": { "type": "Point", "coordinates": [ 119.81476398256558, 31.3642320173492308 ] } },
{ "type": "Feature", "properties": { "AREA": 0, "PERIMETER": 0, "name": "神农架林区", "mapgis_style": 1 }, "geometry": { "type": "Point", "coordinates": [ 110.677098754014054, 31.7549444354303603 ] } },
{ "type": "Feature", "properties": { "AREA": 0, "PERIMETER": 0, "name": "天门市", "mapgis_style": 1 }, "geometry": { "type": "Point", "coordinates": [ 113.164330276018902, 30.656851523213696 ] } },
{ "type": "Feature", "properties": { "AREA": 0, "PERIMETER": 0, "name": "仙桃市", "mapgis_style": 1 }, "geometry": { "type": "Point", "coordinates": [ 113.453046774429069, 30.3723601233279226 ] } },
{ "type": "Feature", "properties": { "AREA": 0, "PERIMETER": 0, "name": "潜江市", "mapgis_style": 1 }, "geometry": { "type": "Point", "coordinates": [ 112.893162612992683, 30.4215494095462127 ] } },
{ "type": "Feature", "properties": { "AREA": 0, "PERIMETER": 0, "name": "防城港市", "mapgis_style": 1 }, "geometry": { "type": "Point", "coordinates": [ 108.356656352992957, 21.7693639868144544 ] } },
{ "type": "Feature", "properties": { "AREA": 0, "PERIMETER": 0, "name": "六库", "mapgis_style": 1 }, "geometry": { "type": "Point", "coordinates": [ 98.6615633922870927, 27.7476934181800523 ] } },
{ "type": "Feature", "properties": { "AREA": 0, "PERIMETER": 0, "name": "格尔木市", "mapgis_style": 1 }, "geometry": { "type": "Point", "coordinates": [ 91.4962001145317316, 33.977515756568863 ] } }
]
}
