{
"type": "FeatureCollection",
"features": [
{ "type": "Feature", "properties": { "id": 25, "osm_id": 157545628, "name": "Blair Portal", "type": "hamlet", "z_order": 2, "population": 0, "mpLayer": 0 }, "geometry": { "type": "Point", "coordinates": [ -77.0363167000000146, 38.992267900000023 ] } },
{ "type": "Feature", "properties": { "id": 43, "osm_id": 49792620, "name": "Shepherd Junction", "type": "locality", "z_order": 0, "population": 0, "mpLayer": 0 }, "geometry": { "type": "Point", "coordinates": [ -76.9602501999997344, 38.8862799999998643 ] } },
{ "type": "Feature", "properties": { "id": 68, "osm_id": 157549287, "name": "Cloisters", "type": "hamlet", "z_order": 2, "population": 0, "mpLayer": 0 }, "geometry": { "type": "Point", "coordinates": [ -77.0663664999999867, 38.9112226000000163 ] } },
{ "type": "Feature", "properties": { "id": 91, "osm_id": 157560332, "name": "Kalorama Triangle", "type": "hamlet", "z_order": 2, "population": 0, "mpLayer": 0 }, "geometry": { "type": "Point", "coordinates": [ -77.041365900000045, 38.9167780999999664 ] } },
{ "type": "Feature", "properties": { "id": 93, "osm_id": 157560663, "name": "Bloomingdale", "type": "hamlet", "z_order": 2, "population": 0, "mpLayer": 0 }, "geometry": { "type": "Point", "coordinates": [ -77.0113652000000428, 38.9167781999999676 ] } },
{ "type": "Feature", "properties": { "id": 130, "osm_id": 157562916, "name": "Kingman Park", "type": "hamlet", "z_order": 2, "population": 0, "mpLayer": 0 }, "geometry": { "type": "Point", "coordinates": [ -76.9746974000000534, 38.9001117999999764 ] } },
{ "type": "Feature", "properties": { "id": 149, "osm_id": 157563595, "name": "Edgewood Terrace", "type": "suburb", "z_order": 1, "population": 0, "mpLayer": 0 }, "geometry": { "type": "Point", "coordinates": [ -76.9926925000000608, 38.9234210999999775 ] } },
{ "type": "Feature", "properties": { "id": 164, "osm_id": 157555424, "name": "Westchester", "type": "hamlet", "z_order": 2, "population": 0, "mpLayer": 0 }, "geometry": { "type": "Point", "coordinates": [ -77.0797001000000535, 38.9259444999999857 ] } },
{ "type": "Feature", "properties": { "id": 318, "osm_id": 157575787, "name": "Mount Vernon Square", "type": "suburb", "z_order": 1, "population": 0, "mpLayer": 0 }, "geometry": { "type": "Point", "coordinates": [ -77.0227542999999883, 38.9048338999999999 ] } },
{ "type": "Feature", "properties": { "id": 337, "osm_id": 157583804, "name": "Thomas Circle", "type": "hamlet", "z_order": 2, "population": 0, "mpLayer": 0 }, "geometry": { "type": "Point", "coordinates": [ -77.0288655999999889, 38.9062226999999936 ] } },
{ "type": "Feature", "properties": { "id": 526, "osm_id": 157596835, "name": "Lanier Heights", "type": "hamlet", "z_order": 2, "population": 0, "mpLayer": 0 }, "geometry": { "type": "Point", "coordinates": [ -77.0399770000000359, 38.9265001999999853 ] } },
{ "type": "Feature", "properties": { "id": 530, "osm_id": 157596978, "name": "Little Indian Rock Terrace", "type": "hamlet", "z_order": 2, "population": 0, "mpLayer": 0 }, "geometry": { "type": "Point", "coordinates": [ -77.0844224000000224, 38.9078892999999724 ] } },
{ "type": "Feature", "properties": { "id": 393, "osm_id": 157587141, "name": "Barnaby Terrace", "type": "hamlet", "z_order": 2, "population": 0, "mpLayer": 0 }, "geometry": { "type": "Point", "coordinates": [ -76.9891419999999869, 38.8334462999999985 ] } },
{ "type": "Feature", "properties": { "id": 471, "osm_id": 157590304, "name": "Forest Hills", "type": "hamlet", "z_order": 2, "population": 0, "mpLayer": 0 }, "geometry": { "type": "Point", "coordinates": [ -77.0580329000000148, 38.9509440999999796 ] } },
{ "type": "Feature", "properties": { "id": 496, "osm_id": 157591605, "name": "Wesley Heights", "type": "hamlet", "z_order": 2, "population": 0, "mpLayer": 0 }, "geometry": { "type": "Point", "coordinates": [ -77.088033600000017, 38.9312222000000077 ] } },
{ "type": "Feature", "properties": { "id": 716, "osm_id": 157610884, "name": "Columbia Heights", "type": "suburb", "z_order": 1, "population": 0, "mpLayer": 0 }, "geometry": { "type": "Point", "coordinates": [ -77.0294287000000679, 38.9256723999999821 ] } },
{ "type": "Feature", "properties": { "id": 717, "osm_id": 157610971, "name": "Ivy City", "type": "hamlet", "z_order": 2, "population": 0, "mpLayer": 0 }, "geometry": { "type": "Point", "coordinates": [ -76.9846978000000632, 38.9112226999999749 ] } },
{ "type": "Feature", "properties": { "id": 606, "osm_id": 157599737, "name": "Lincoln Heights", "type": "hamlet", "z_order": 2, "population": 0, "mpLayer": 0 }, "geometry": { "type": "Point", "coordinates": [ -76.9288628000000614, 38.8945563999999564 ] } },
{ "type": "Feature", "properties": { "id": 625, "osm_id": 157600646, "name": "Benning Heights", "type": "hamlet", "z_order": 2, "population": 0, "mpLayer": 0 }, "geometry": { "type": "Point", "coordinates": [ -76.9360852000000648, 38.8817788999999578 ] } },
{ "type": "Feature", "properties": { "id": 626, "osm_id": 157600689, "name": "Cathedral Heights", "type": "hamlet", "z_order": 2, "population": 0, "mpLayer": 0 }, "geometry": { "type": "Point", "coordinates": [ -77.0774778000000822, 38.9256667999999593 ] } },
{ "type": "Feature", "properties": { "id": 781, "osm_id": 157618698, "name": "Buena Vista", "type": "hamlet", "z_order": 2, "population": 0, "mpLayer": 0 }, "geometry": { "type": "Point", "coordinates": [ -76.9794196000000426, 38.8570569999999833 ] } },
{ "type": "Feature", "properties": { "id": 813, "osm_id": 157621768, "name": "Anacostia", "type": "suburb", "z_order": 1, "population": 0, "mpLayer": 0 }, "geometry": { "type": "Point", "coordinates": [ -76.9838656000000441, 38.8665067999999749 ] } },
{ "type": "Feature", "properties": { "id": 852, "osm_id": 157623373, "name": "Foxhall Crescent", "type": "hamlet", "z_order": 2, "population": 0, "mpLayer": 0 }, "geometry": { "type": "Point", "coordinates": [ -77.0922004000000527, 38.9231667999999686 ] } },
{ "type": "Feature", "properties": { "id": 880, "osm_id": 157624066, "name": "Southwest", "type": "hamlet", "z_order": 2, "population": 0, "mpLayer": 0 }, "geometry": { "type": "Point", "coordinates": [ -77.0163652000000667, 38.8812231999999582 ] } },
{ "type": "Feature", "properties": { "id": 900, "osm_id": 157624802, "name": "North Cleveland Park", "type": "hamlet", "z_order": 2, "population": 0, "mpLayer": 0 }, "geometry": { "type": "Point", "coordinates": [ -77.0705332000000425, 38.9501107999999689 ] } },
{ "type": "Feature", "properties": { "id": 911, "osm_id": 157633177, "name": "American University Park", "type": "hamlet", "z_order": 2, "population": 0, "mpLayer": 0 }, "geometry": { "type": "Point", "coordinates": [ -77.089978100000053, 38.9514995999999627 ] } },
{ "type": "Feature", "properties": { "id": 965, "osm_id": 157634410, "name": "Lincoln Park", "type": "hamlet", "z_order": 2, "population": 0, "mpLayer": 0 }, "geometry": { "type": "Point", "coordinates": [ -76.9816420000000505, 38.8912230999999906 ] } },
{ "type": "Feature", "properties": { "id": 992, "osm_id": 157636686, "name": "Douglass Dwellings", "type": "hamlet", "z_order": 2, "population": 0, "mpLayer": 0 }, "geometry": { "type": "Point", "coordinates": [ -76.9777529000000982, 38.8484460999999826 ] } },
{ "type": "Feature", "properties": { "id": 1087, "osm_id": 158224610, "name": "Mayfair-Parkside", "type": "hamlet", "z_order": 2, "population": 0, "mpLayer": 0 }, "geometry": { "type": "Point", "coordinates": [ -76.9496967000000609, 38.9015006999999784 ] } },
{ "type": "Feature", "properties": { "id": 1221, "osm_id": 158237080, "name": "Trinidad", "type": "hamlet", "z_order": 2, "population": 0, "mpLayer": 0 }, "geometry": { "type": "Point", "coordinates": [ -76.9844200000000569, 38.9056672999999691 ] } },
{ "type": "Feature", "properties": { "id": 1146, "osm_id": 158227512, "name": "Cleveland Park", "type": "suburb", "z_order": 1, "population": 0, "mpLayer": 0 }, "geometry": { "type": "Point", "coordinates": [ -77.0655382000000628, 38.9362232000000006 ] } },
{ "type": "Feature", "properties": { "id": 1299, "osm_id": 158242731, "name": "Washington Highlands", "type": "hamlet", "z_order": 2, "population": 0, "mpLayer": 0 }, "geometry": { "type": "Point", "coordinates": [ -76.9946977000000743, 38.8320573999999752 ] } },
{ "type": "Feature", "properties": { "id": 1252, "osm_id": 158239757, "name": "Crestwood", "type": "hamlet", "z_order": 2, "population": 0, "mpLayer": 0 }, "geometry": { "type": "Point", "coordinates": [ -77.0405325000000687, 38.9417776999999745 ] } },
{ "type": "Feature", "properties": { "id": 1260, "osm_id": 158240133, "name": "Senate Heights", "type": "hamlet", "z_order": 2, "population": 0, "mpLayer": 0 }, "geometry": { "type": "Point", "coordinates": [ -77.089422500000083, 38.9153891999999715 ] } },
{ "type": "Feature", "properties": { "id": 1408, "osm_id": 158249984, "name": "Georgetown", "type": "suburb", "z_order": 1, "population": 0, "mpLayer": 0 }, "geometry": { "type": "Point", "coordinates": [ -77.0627850000000763, 38.9051993999999794 ] } },
{ "type": "Feature", "properties": { "id": 1416, "osm_id": 158250162, "name": "Bellevue", "type": "hamlet", "z_order": 2, "population": 0, "mpLayer": 0 }, "geometry": { "type": "Point", "coordinates": [ -77.0103168000000551, 38.8265323999999907 ] } },
{ "type": "Feature", "properties": { "id": 1494, "osm_id": 158259609, "name": "Tenleytown", "type": "hamlet", "z_order": 2, "population": 0, "mpLayer": 0 }, "geometry": { "type": "Point", "coordinates": [ -77.0802735999999697, 38.9489042000000012 ] } },
{ "type": "Feature", "properties": { "id": 1501, "osm_id": 158260143, "name": "Judiciary Square", "type": "hamlet", "z_order": 2, "population": 0, "mpLayer": 0 }, "geometry": { "type": "Point", "coordinates": [ -77.0163652999999613, 38.8987229000000028 ] } },
{ "type": "Feature", "properties": { "id": 1613, "osm_id": 158277324, "name": "The Cloisters", "type": "hamlet", "z_order": 2, "population": 0, "mpLayer": 0 }, "geometry": { "type": "Point", "coordinates": [ -77.0061133999999896, 38.9279325000000185 ] } },
{ "type": "Feature", "properties": { "id": 1471, "osm_id": 158252218, "name": "Barnaby Woods", "type": "hamlet", "z_order": 2, "population": 0, "mpLayer": 0 }, "geometry": { "type": "Point", "coordinates": [ -77.0596996999999959, 38.9748325999999707 ] } },
{ "type": "Feature", "properties": { "id": 1647, "osm_id": 158272630, "name": "Pennsylvania Avenue Hights", "type": "hamlet", "z_order": 2, "population": 0, "mpLayer": 0 }, "geometry": { "type": "Point", "coordinates": [ -76.958030100000002, 38.8681679999999901 ] } },
{ "type": "Feature", "properties": { "id": 1658, "osm_id": 158273399, "name": "Woodley Park", "type": "hamlet", "z_order": 2, "population": 0, "mpLayer": 0 }, "geometry": { "type": "Point", "coordinates": [ -77.055810699999995, 38.9287223000000182 ] } },
{ "type": "Feature", "properties": { "id": 1651, "osm_id": 158279424, "name": "Colony Hill", "type": "hamlet", "z_order": 2, "population": 0, "mpLayer": 0 }, "geometry": { "type": "Point", "coordinates": [ -77.0872002999999637, 38.9131670000000085 ] } },
{ "type": "Feature", "properties": { "id": 1653, "osm_id": 158279460, "name": "Foxhall", "type": "hamlet", "z_order": 2, "population": 0, "mpLayer": 0 }, "geometry": { "type": "Point", "coordinates": [ -77.0941447999999809, 38.9223334000000207 ] } },
{ "type": "Feature", "properties": { "id": 1659, "osm_id": 158279718, "name": "Good Hope", "type": "hamlet", "z_order": 2, "population": 0, "mpLayer": 0 }, "geometry": { "type": "Point", "coordinates": [ -76.9638636999999761, 38.8626125000000044 ] } },
{ "type": "Feature", "properties": { "id": 1760, "osm_id": 158284466, "name": "Colonial Village", "type": "hamlet", "z_order": 2, "population": 0, "mpLayer": 0 }, "geometry": { "type": "Point", "coordinates": [ -77.0399770999999305, 38.9926100999999719 ] } },
{ "type": "Feature", "properties": { "id": 1762, "osm_id": 158284531, "name": "Glover Park", "type": "hamlet", "z_order": 2, "population": 0, "mpLayer": 0 }, "geometry": { "type": "Point", "coordinates": [ -77.077199999999948, 38.920944599999963 ] } },
{ "type": "Feature", "properties": { "id": 1804, "osm_id": 158286707, "name": "Adams Morgan", "type": "suburb", "z_order": 1, "population": 0, "mpLayer": 0 }, "geometry": { "type": "Point", "coordinates": [ -77.0421991999999278, 38.9215001999999899 ] } },
{ "type": "Feature", "properties": { "id": 1975, "osm_id": 158307762, "name": "West Over View", "type": "hamlet", "z_order": 2, "population": 0, "mpLayer": 0 }, "geometry": { "type": "Point", "coordinates": [ -76.9635858999998845, 38.8681679999999901 ] } },
{ "type": "Feature", "properties": { "id": 1910, "osm_id": 158302193, "name": "Twining", "type": "suburb", "z_order": 1, "population": 0, "mpLayer": 0 }, "geometry": { "type": "Point", "coordinates": [ -76.9658131999998858, 38.8717845999999838 ] } },
{ "type": "Feature", "properties": { "id": 1985, "osm_id": 158316896, "name": "The Palisades", "type": "hamlet", "z_order": 2, "population": 0, "mpLayer": 0 }, "geometry": { "type": "Point", "coordinates": [ -77.1013672999999358, 38.9251111999999893 ] } },
{ "type": "Feature", "properties": { "id": 2045, "osm_id": 158320241, "name": "Shaw", "type": "hamlet", "z_order": 2, "population": 0, "mpLayer": 0 }, "geometry": { "type": "Point", "coordinates": [ -77.0213653999999366, 38.9120558999999488 ] } },
{ "type": "Feature", "properties": { "id": 2134, "osm_id": 158315461, "name": "Fort Lincoln New Town", "type": "hamlet", "z_order": 2, "population": 0, "mpLayer": 0 }, "geometry": { "type": "Point", "coordinates": [ -76.9563636999999261, 38.9223336999999887 ] } },
{ "type": "Feature", "properties": { "id": 2254, "osm_id": 158334399, "name": "Chevy Chase Heights", "type": "hamlet", "z_order": 2, "population": 0, "mpLayer": 0 }, "geometry": { "type": "Point", "coordinates": [ -77.0774777999999401, 38.959554999999952 ] } },
{ "type": "Feature", "properties": { "id": 2332, "osm_id": 158337811, "name": "Shepherd Park", "type": "hamlet", "z_order": 2, "population": 0, "mpLayer": 0 }, "geometry": { "type": "Point", "coordinates": [ -77.033309299999928, 38.9850272999999561 ] } },
{ "type": "Feature", "properties": { "id": 2385, "osm_id": 158346318, "name": "Benning", "type": "hamlet", "z_order": 2, "population": 0, "mpLayer": 0 }, "geometry": { "type": "Point", "coordinates": [ -76.9488633999999649, 38.8951119999999477 ] } },
{ "type": "Feature", "properties": { "id": 2387, "osm_id": 158346335, "name": "Chillum Station", "type": "suburb", "z_order": 1, "population": 0, "mpLayer": 0 }, "geometry": { "type": "Point", "coordinates": [ -77.0041464999999761, 38.9556723999999619 ] } },
{ "type": "Feature", "properties": { "id": 2466, "osm_id": 158351844, "name": "Cookes Park", "type": "hamlet", "z_order": 2, "population": 0, "mpLayer": 0 }, "geometry": { "type": "Point", "coordinates": [ -77.0602552999999801, 38.91150039999998 ] } },
{ "type": "Feature", "properties": { "id": 2470, "osm_id": 158352237, "name": "Hillcrest", "type": "hamlet", "z_order": 2, "population": 0, "mpLayer": 0 }, "geometry": { "type": "Point", "coordinates": [ -76.9580300999999736, 38.8620569999999788 ] } },
{ "type": "Feature", "properties": { "id": 2479, "osm_id": 158352594, "name": "Northwest Rectangle", "type": "hamlet", "z_order": 2, "population": 0, "mpLayer": 0 }, "geometry": { "type": "Point", "coordinates": [ -77.0449770999999544, 38.8945561999999612 ] } },
{ "type": "Feature", "properties": { "id": 2480, "osm_id": 158352661, "name": "Rosedale", "type": "hamlet", "z_order": 2, "population": 0, "mpLayer": 0 }, "geometry": { "type": "Point", "coordinates": [ -76.9788642999999695, 38.8973340999999806 ] } },
{ "type": "Feature", "properties": { "id": 2432, "osm_id": 158348629, "name": "Logan Circle", "type": "suburb", "z_order": 1, "population": 0, "mpLayer": 0 }, "geometry": { "type": "Point", "coordinates": [ -77.0296258999999282, 38.9097777999999792 ] } },
{ "type": "Feature", "properties": { "id": 2592, "osm_id": 158358378, "name": "Westmoreland Terrace", "type": "hamlet", "z_order": 2, "population": 0, "mpLayer": 0 }, "geometry": { "type": "Point", "coordinates": [ -77.0997004999999973, 38.947332999999972 ] } },
{ "type": "Feature", "properties": { "id": 2633, "osm_id": 158364314, "name": "East Central", "type": "hamlet", "z_order": 2, "population": 0, "mpLayer": 0 }, "geometry": { "type": "Point", "coordinates": [ -77.0121984999999825, 38.9001117999999764 ] } },
{ "type": "Feature", "properties": { "id": 2505, "osm_id": 158353306, "name": "Sheridan-Kalorama", "type": "hamlet", "z_order": 2, "population": 0, "mpLayer": 0 }, "geometry": { "type": "Point", "coordinates": [ -77.0496993999999802, 38.9145557999999667 ] } },
{ "type": "Feature", "properties": { "id": 2534, "osm_id": 158354451, "name": "Foxhall Terrace", "type": "hamlet", "z_order": 2, "population": 0, "mpLayer": 0 }, "geometry": { "type": "Point", "coordinates": [ -77.073311099999998, 38.9140002999999979 ] } },
{ "type": "Feature", "properties": { "id": 2536, "osm_id": 158355020, "name": "Brentwood Village", "type": "suburb", "z_order": 1, "population": 0, "mpLayer": 0 }, "geometry": { "type": "Point", "coordinates": [ -76.9844269999999682, 38.9209503999999953 ] } },
{ "type": "Feature", "properties": { "id": 2704, "osm_id": 158368533, "name": "Washington", "type": "city", "z_order": 5, "population": 581530, "mpLayer": 0 }, "geometry": { "type": "Point", "coordinates": [ -77.0363715999999528, 38.8951147999999662 ] } },
{ "type": "Feature", "properties": { "id": 2809, "osm_id": 158381097, "name": "Potomac Heights", "type": "hamlet", "z_order": 2, "population": 0, "mpLayer": 0 }, "geometry": { "type": "Point", "coordinates": [ -77.1077563000000055, 38.9276111 ] } },
{ "type": "Feature", "properties": { "id": 2824, "osm_id": 158382189, "name": "Dupont Park", "type": "hamlet", "z_order": 2, "population": 0, "mpLayer": 0 }, "geometry": { "type": "Point", "coordinates": [ -76.9502522000000084, 38.8715012999999914 ] } },
{ "type": "Feature", "properties": { "id": 2826, "osm_id": 158382208, "name": "Franklin McPherson Square", "type": "hamlet", "z_order": 2, "population": 0, "mpLayer": 0 }, "geometry": { "type": "Point", "coordinates": [ -77.0330322999999879, 38.9015006000000056 ] } },
{ "type": "Feature", "properties": { "id": 2843, "osm_id": 158383652, "name": "University Heights", "type": "hamlet", "z_order": 2, "population": 0, "mpLayer": 0 }, "geometry": { "type": "Point", "coordinates": [ -76.9935870999999992, 38.9398333000000036 ] } },
{ "type": "Feature", "properties": { "id": 2835, "osm_id": 158379347, "name": "Spring Valley", "type": "hamlet", "z_order": 2, "population": 0, "mpLayer": 0 }, "geometry": { "type": "Point", "coordinates": [ -77.0988672000000008, 38.9395553000000021 ] } },
{ "type": "Feature", "properties": { "id": 2955, "osm_id": 158393675, "name": "Northeast Boundary", "type": "hamlet", "z_order": 2, "population": 0, "mpLayer": 0 }, "geometry": { "type": "Point", "coordinates": [ -76.9163624000000681, 38.8926121000000151 ] } },
{ "type": "Feature", "properties": { "id": 2980, "osm_id": 158395588, "name": "Riggs Park", "type": "hamlet", "z_order": 2, "population": 0, "mpLayer": 0 }, "geometry": { "type": "Point", "coordinates": [ -76.9941426000000746, 38.9542775000000177 ] } },
{ "type": "Feature", "properties": { "id": 2983, "osm_id": 158395657, "name": "Langdon", "type": "hamlet", "z_order": 2, "population": 0, "mpLayer": 0 }, "geometry": { "type": "Point", "coordinates": [ -76.9738642000000794, 38.9231670000000136 ] } },
{ "type": "Feature", "properties": { "id": 3017, "osm_id": 158397322, "name": "Truxton Circle", "type": "hamlet", "z_order": 2, "population": 0, "mpLayer": 0 }, "geometry": { "type": "Point", "coordinates": [ -77.01497640000008, 38.9098338000000155 ] } },
{ "type": "Feature", "properties": { "id": 2939, "osm_id": 158388501, "name": "Foxhall Village", "type": "hamlet", "z_order": 2, "population": 0, "mpLayer": 0 }, "geometry": { "type": "Point", "coordinates": [ -77.0844224000000224, 38.9117780999999852 ] } },
{ "type": "Feature", "properties": { "id": 3027, "osm_id": 158398421, "name": "Fort Dupont", "type": "hamlet", "z_order": 2, "population": 0, "mpLayer": 0 }, "geometry": { "type": "Point", "coordinates": [ -76.9385852000000625, 38.8726124000000013 ] } },
{ "type": "Feature", "properties": { "id": 3059, "osm_id": 158401101, "name": "Park Place", "type": "hamlet", "z_order": 2, "population": 0, "mpLayer": 0 }, "geometry": { "type": "Point", "coordinates": [ -77.0052540000000079, 38.9306668000000329 ] } },
{ "type": "Feature", "properties": { "id": 3166, "osm_id": 158410582, "name": "Central Northeast", "type": "hamlet", "z_order": 2, "population": 0, "mpLayer": 0 }, "geometry": { "type": "Point", "coordinates": [ -76.94105780000001, 38.896149800000039 ] } },
{ "type": "Feature", "properties": { "id": 3230, "osm_id": 158415619, "name": "Penn Branch", "type": "hamlet", "z_order": 2, "population": 0, "mpLayer": 0 }, "geometry": { "type": "Point", "coordinates": [ -76.9571967999999913, 38.8737234000000171 ] } },
{ "type": "Feature", "properties": { "id": 3185, "osm_id": 158424677, "name": "Westminster", "type": "hamlet", "z_order": 2, "population": 0, "mpLayer": 0 }, "geometry": { "type": "Point", "coordinates": [ -77.0213653999999224, 38.9148336999999955 ] } },
{ "type": "Feature", "properties": { "id": 3205, "osm_id": 158425601, "name": "North Gate", "type": "hamlet", "z_order": 2, "population": 0, "mpLayer": 0 }, "geometry": { "type": "Point", "coordinates": [ -77.0352547999999331, 38.9873324000000139 ] } },
{ "type": "Feature", "properties": { "id": 3292, "osm_id": 158430723, "name": "Burleith", "type": "hamlet", "z_order": 2, "population": 0, "mpLayer": 0 }, "geometry": { "type": "Point", "coordinates": [ -77.0724776999999222, 38.9153892000000212 ] } },
{ "type": "Feature", "properties": { "id": 3302, "osm_id": 158431204, "name": "Chinatown", "type": "hamlet", "z_order": 2, "population": 0, "mpLayer": 0 }, "geometry": { "type": "Point", "coordinates": [ -77.020988899999935, 38.8998024999999856 ] } },
{ "type": "Feature", "properties": { "id": 3236, "osm_id": 158416046, "name": "Naylor Gardens", "type": "hamlet", "z_order": 2, "population": 0, "mpLayer": 0 }, "geometry": { "type": "Point", "coordinates": [ -76.9662987999999615, 38.8563476000000136 ] } },
{ "type": "Feature", "properties": { "id": 3239, "osm_id": 158416078, "name": "Gateway", "type": "hamlet", "z_order": 2, "population": 0, "mpLayer": 0 }, "geometry": { "type": "Point", "coordinates": [ -76.9635860999999721, 38.9209448000000151 ] } },
{ "type": "Feature", "properties": { "id": 3262, "osm_id": 158416678, "name": "Manor Park", "type": "hamlet", "z_order": 2, "population": 0, "mpLayer": 0 }, "geometry": { "type": "Point", "coordinates": [ -77.0158098999999225, 38.9639995000000354 ] } },
{ "type": "Feature", "properties": { "id": 3274, "osm_id": 158417653, "name": "East Washington Heights", "type": "hamlet", "z_order": 2, "population": 0, "mpLayer": 0 }, "geometry": { "type": "Point", "coordinates": [ -76.9435853999999324, 38.8920564000000155 ] } },
{ "type": "Feature", "properties": { "id": 3337, "osm_id": 158434207, "name": "Kent", "type": "hamlet", "z_order": 2, "population": 0, "mpLayer": 0 }, "geometry": { "type": "Point", "coordinates": [ -77.1035894999999556, 38.9337221000000113 ] } },
{ "type": "Feature", "properties": { "id": 3341, "osm_id": 158435207, "name": "Randle Highlands", "type": "suburb", "z_order": 1, "population": 0, "mpLayer": 0 }, "geometry": { "type": "Point", "coordinates": [ -76.9663710999999751, 38.8703946000000258 ] } },
{ "type": "Feature", "properties": { "id": 3359, "osm_id": 158449397, "name": "Farragut Square", "type": "suburb", "z_order": 1, "population": 0, "mpLayer": 0 }, "geometry": { "type": "Point", "coordinates": [ -77.0441436999999212, 38.9028894999999935 ] } },
{ "type": "Feature", "properties": { "id": 3371, "osm_id": 158451242, "name": "Michigan Park", "type": "hamlet", "z_order": 2, "population": 0, "mpLayer": 0 }, "geometry": { "type": "Point", "coordinates": [ -76.9858090999999121, 38.9487220000000178 ] } },
{ "type": "Feature", "properties": { "id": 3424, "osm_id": 158454849, "name": "Hawthorne", "type": "hamlet", "z_order": 2, "population": 0, "mpLayer": 0 }, "geometry": { "type": "Point", "coordinates": [ -77.0546995999999496, 38.9803881000000061 ] } },
{ "type": "Feature", "properties": { "id": 3426, "osm_id": 158454871, "name": "Terra Cotta", "type": "hamlet", "z_order": 2, "population": 0, "mpLayer": 0 }, "geometry": { "type": "Point", "coordinates": [ -76.9983094999999338, 38.9537219000000192 ] } },
{ "type": "Feature", "properties": { "id": 3595, "osm_id": 158465436, "name": "Hampshire Knolls", "type": "hamlet", "z_order": 2, "population": 0, "mpLayer": 0 }, "geometry": { "type": "Point", "coordinates": [ -77.0038651999999075, 38.9612218000000681 ] } },
{ "type": "Feature", "properties": { "id": 3579, "osm_id": 158463627, "name": "Woodridge", "type": "suburb", "z_order": 1, "population": 0, "mpLayer": 0 }, "geometry": { "type": "Point", "coordinates": [ -76.9710796999999332, 38.9312290000000374 ] } },
{ "type": "Feature", "properties": { "id": 3580, "osm_id": 158464177, "name": "Park View", "type": "hamlet", "z_order": 2, "population": 0, "mpLayer": 0 }, "geometry": { "type": "Point", "coordinates": [ -77.0236371999999392, 38.9320300000000543 ] } },
{ "type": "Feature", "properties": { "id": 3642, "osm_id": 158467370, "name": "Dupont Circle", "type": "suburb", "z_order": 1, "population": 0, "mpLayer": 0 }, "geometry": { "type": "Point", "coordinates": [ -77.0441436999998785, 38.9084449000000774 ] } },
{ "type": "Feature", "properties": { "id": 3696, "osm_id": 158472580, "name": "Congress Heights", "type": "suburb", "z_order": 1, "population": 0, "mpLayer": 0 }, "geometry": { "type": "Point", "coordinates": [ -77.0002545999998915, 38.8428968000000765 ] } },
{ "type": "Feature", "properties": { "id": 3700, "osm_id": 158472737, "name": "Giesboro", "type": "hamlet", "z_order": 2, "population": 0, "mpLayer": 0 }, "geometry": { "type": "Point", "coordinates": [ -77.0163650999998879, 38.8445571000000669 ] } },
{ "type": "Feature", "properties": { "id": 3708, "osm_id": 158472986, "name": "North Michigan Park", "type": "hamlet", "z_order": 2, "population": 0, "mpLayer": 0 }, "geometry": { "type": "Point", "coordinates": [ -76.9774754999999118, 38.9431666000000405 ] } },
{ "type": "Feature", "properties": { "id": 3758, "osm_id": 158485245, "name": "Fairfax Village", "type": "hamlet", "z_order": 2, "population": 0, "mpLayer": 0 }, "geometry": { "type": "Point", "coordinates": [ -76.9508431999998948, 38.8624704000000563 ] } },
{ "type": "Feature", "properties": { "id": 3783, "osm_id": 158485708, "name": "Greenway", "type": "hamlet", "z_order": 2, "population": 0, "mpLayer": 0 }, "geometry": { "type": "Point", "coordinates": [ -76.9546967999998941, 38.887612100000041 ] } },
{ "type": "Feature", "properties": { "id": 3836, "osm_id": 158489169, "name": "Kenilworth", "type": "hamlet", "z_order": 2, "population": 0, "mpLayer": 0 }, "geometry": { "type": "Point", "coordinates": [ -76.9406473999998752, 38.9059897000000134 ] } },
{ "type": "Feature", "properties": { "id": 3839, "osm_id": 158489254, "name": "Fort Davis", "type": "hamlet", "z_order": 2, "population": 0, "mpLayer": 0 }, "geometry": { "type": "Point", "coordinates": [ -76.9460853999998733, 38.8667792000000247 ] } },
{ "type": "Feature", "properties": { "id": 3778, "osm_id": 158476340, "name": "Mount Pleasant", "type": "hamlet", "z_order": 2, "population": 0, "mpLayer": 0 }, "geometry": { "type": "Point", "coordinates": [ -77.0408102999998619, 38.9306668000000329 ] } },
{ "type": "Feature", "properties": { "id": 3780, "osm_id": 158476374, "name": "LeDroit Park", "type": "suburb", "z_order": 1, "population": 0, "mpLayer": 0 }, "geometry": { "type": "Point", "coordinates": [ -77.0157210999998654, 38.9159068000000374 ] } },
{ "type": "Feature", "properties": { "id": 3908, "osm_id": 158495022, "name": "Sutton Place", "type": "hamlet", "z_order": 2, "population": 0, "mpLayer": 0 }, "geometry": { "type": "Point", "coordinates": [ -77.0816444999998254, 38.931500000000014 ] } },
{ "type": "Feature", "properties": { "id": 3949, "osm_id": 158497860, "name": "Eastland Gardens", "type": "hamlet", "z_order": 2, "population": 0, "mpLayer": 0 }, "geometry": { "type": "Point", "coordinates": [ -76.9427521999998447, 38.9084450000000217 ] } },
{ "type": "Feature", "properties": { "id": 4040, "osm_id": 158502175, "name": "Knox Hill Dwellings", "type": "hamlet", "z_order": 2, "population": 0, "mpLayer": 0 }, "geometry": { "type": "Point", "coordinates": [ -76.966919199999893, 38.8534460000000053 ] } },
{ "type": "Feature", "properties": { "id": 4042, "osm_id": 158502198, "name": "Capitol Hill", "type": "suburb", "z_order": 1, "population": 0, "mpLayer": 0 }, "geometry": { "type": "Point", "coordinates": [ -77.0002536999999023, 38.8890009000000134 ] } },
{ "type": "Feature", "properties": { "id": 4121, "osm_id": 158519340, "name": "Scott Circle", "type": "hamlet", "z_order": 2, "population": 0, "mpLayer": 0 }, "geometry": { "type": "Point", "coordinates": [ -77.0358101999998439, 38.909278300000004 ] } },
{ "type": "Feature", "properties": { "id": 4155, "osm_id": 158531729, "name": "Shipley Terrace", "type": "hamlet", "z_order": 2, "population": 0, "mpLayer": 0 }, "geometry": { "type": "Point", "coordinates": [ -76.9691414999998358, 38.8473349999999655 ] } },
{ "type": "Feature", "properties": { "id": 4348, "osm_id": 158542376, "name": "Embassy Park", "type": "hamlet", "z_order": 2, "population": 0, "mpLayer": 0 }, "geometry": { "type": "Point", "coordinates": [ -77.0830334999998001, 38.9356665999999123 ] } },
{ "type": "Feature", "properties": { "id": 4349, "osm_id": 158542394, "name": "Woodland", "type": "hamlet", "z_order": 2, "population": 0, "mpLayer": 0 }, "geometry": { "type": "Point", "coordinates": [ -76.9705304999998248, 38.8617791999999227 ] } },
{ "type": "Feature", "properties": { "id": 4418, "osm_id": 158543745, "name": "Kalorama Heights", "type": "hamlet", "z_order": 2, "population": 0, "mpLayer": 0 }, "geometry": { "type": "Point", "coordinates": [ -77.0524772999997793, 38.9167780999999167 ] } },
{ "type": "Feature", "properties": { "id": 4480, "osm_id": 158562147, "name": "Varnum", "type": "suburb", "z_order": 1, "population": 0, "mpLayer": 0 }, "geometry": { "type": "Point", "coordinates": [ -77.0052562999998287, 38.9431718999998893 ] } },
{ "type": "Feature", "properties": { "id": 4657, "osm_id": 158576894, "name": "Metropolis View", "type": "hamlet", "z_order": 2, "population": 0, "mpLayer": 0 }, "geometry": { "type": "Point", "coordinates": [ -77.000253899999862, 38.927889099999831 ] } },
{ "type": "Feature", "properties": { "id": 4637, "osm_id": 158553539, "name": "Fairlawn", "type": "hamlet", "z_order": 2, "population": 0, "mpLayer": 0 }, "geometry": { "type": "Point", "coordinates": [ -76.9788640999998393, 38.8709455999998994 ] } },
{ "type": "Feature", "properties": { "id": 4701, "osm_id": 158578275, "name": "Westover Place", "type": "hamlet", "z_order": 2, "population": 0, "mpLayer": 0 }, "geometry": { "type": "Point", "coordinates": [ -77.0858112999998752, 38.9364998999998093 ] } },
{ "type": "Feature", "properties": { "id": 4844, "osm_id": 158589121, "name": "Capitol View", "type": "suburb", "z_order": 1, "population": 0, "mpLayer": 0 }, "geometry": { "type": "Point", "coordinates": [ -76.9313696999998626, 38.8895614999998216 ] } },
{ "type": "Feature", "properties": { "id": 4804, "osm_id": 158570100, "name": "Petworth", "type": "suburb", "z_order": 1, "population": 0, "mpLayer": 0 }, "geometry": { "type": "Point", "coordinates": [ -77.0249785999998551, 38.9459297999998526 ] } },
{ "type": "Feature", "properties": { "id": 4961, "osm_id": 158574015, "name": "Edgewood", "type": "suburb", "z_order": 1, "population": 0, "mpLayer": 0 }, "geometry": { "type": "Point", "coordinates": [ -77.0005374999998509, 38.9226130999998361 ] } },
{ "type": "Feature", "properties": { "id": 5021, "osm_id": 158594478, "name": "Marshall Heights", "type": "hamlet", "z_order": 2, "population": 0, "mpLayer": 0 }, "geometry": { "type": "Point", "coordinates": [ -76.9289096999998634, 38.8863141999998589 ] } },
{ "type": "Feature", "properties": { "id": 5107, "osm_id": 158595870, "name": "East End", "type": "hamlet", "z_order": 2, "population": 0, "mpLayer": 0 }, "geometry": { "type": "Point", "coordinates": [ -77.0108207999998342, 38.8962557999998424 ] } },
{ "type": "Feature", "properties": { "id": 5170, "osm_id": 158597323, "name": "West End", "type": "hamlet", "z_order": 2, "population": 0, "mpLayer": 0 }, "geometry": { "type": "Point", "coordinates": [ -77.0496993999998523, 38.907055999999848 ] } },
{ "type": "Feature", "properties": { "id": 5157, "osm_id": 158587730, "name": "River Terrace", "type": "hamlet", "z_order": 2, "population": 0, "mpLayer": 0 }, "geometry": { "type": "Point", "coordinates": [ -76.9576685999998915, 38.892147999999807 ] } },
{ "type": "Feature", "properties": { "id": 5289, "osm_id": 158604941, "name": "Brookland", "type": "suburb", "z_order": 1, "population": 0, "mpLayer": 0 }, "geometry": { "type": "Point", "coordinates": [ -76.9841435999997685, 38.9328947999998363 ] } },
{ "type": "Feature", "properties": { "id": 5319, "osm_id": 158605906, "name": "Massachusetts Avenue Heights", "type": "hamlet", "z_order": 2, "population": 0, "mpLayer": 0 }, "geometry": { "type": "Point", "coordinates": [ -77.0649775999997928, 38.9265000999998065 ] } },
{ "type": "Feature", "properties": { "id": 5351, "osm_id": 158606957, "name": "Eckington", "type": "hamlet", "z_order": 2, "population": 0, "mpLayer": 0 }, "geometry": { "type": "Point", "coordinates": [ -77.0091858999997783, 38.9125254999998305 ] } },
{ "type": "Feature", "properties": { "id": 5379, "osm_id": 158607102, "name": "Friendship Heights", "type": "hamlet", "z_order": 2, "population": 0, "mpLayer": 0 }, "geometry": { "type": "Point", "coordinates": [ -77.0833082999997856, 38.9603044999998289 ] } },
{ "type": "Feature", "properties": { "id": 5418, "osm_id": 158611280, "name": "Barry Farms", "type": "hamlet", "z_order": 2, "population": 0, "mpLayer": 0 }, "geometry": { "type": "Point", "coordinates": [ -76.9969705999998126, 38.8598038999998252 ] } },
{ "type": "Feature", "properties": { "id": 5537, "osm_id": 158617904, "name": "Congress Park", "type": "hamlet", "z_order": 2, "population": 0, "mpLayer": 0 }, "geometry": { "type": "Point", "coordinates": [ -76.9908087999997974, 38.8412238999998181 ] } },
{ "type": "Feature", "properties": { "id": 5538, "osm_id": 158617916, "name": "Rock Creek Gardens", "type": "hamlet", "z_order": 2, "population": 0, "mpLayer": 0 }, "geometry": { "type": "Point", "coordinates": [ -77.0455326999997965, 38.9887211999998087 ] } },
{ "type": "Feature", "properties": { "id": 5713, "osm_id": 158622290, "name": "Isherwood", "type": "hamlet", "z_order": 2, "population": 0, "mpLayer": 0 }, "geometry": { "type": "Point", "coordinates": [ -76.9788641999998333, 38.894556299999806 ] } },
{ "type": "Feature", "properties": { "id": 5750, "osm_id": 158623427, "name": "Brightwood Park", "type": "hamlet", "z_order": 2, "population": 0, "mpLayer": 0 }, "geometry": { "type": "Point", "coordinates": [ -77.0249766999998258, 38.9570550999998133 ] } },
{ "type": "Feature", "properties": { "id": 5837, "osm_id": 158635659, "name": "Brightwood", "type": "suburb", "z_order": 1, "population": 0, "mpLayer": 0 }, "geometry": { "type": "Point", "coordinates": [ -77.0274831999998213, 38.9612249999997644 ] } },
{ "type": "Feature", "properties": { "id": 5845, "osm_id": 158635853, "name": "Deanwood", "type": "suburb", "z_order": 1, "population": 0, "mpLayer": 0 }, "geometry": { "type": "Point", "coordinates": [ -76.9294199999998227, 38.8984452999997359 ] } },
{ "type": "Feature", "properties": { "id": 5847, "osm_id": 158635863, "name": "Indian Rock Terrace", "type": "hamlet", "z_order": 2, "population": 0, "mpLayer": 0 }, "geometry": { "type": "Point", "coordinates": [ -77.0872002999998216, 38.909000399999762 ] } },
{ "type": "Feature", "properties": { "id": 5982, "osm_id": 158638609, "name": "Washington City", "type": "hamlet", "z_order": 2, "population": 0, "mpLayer": 0 }, "geometry": { "type": "Point", "coordinates": [ -77.016365299999805, 38.900111799999749 ] } },
{ "type": "Feature", "properties": { "id": 5943, "osm_id": 158645685, "name": "McLean Gardens", "type": "hamlet", "z_order": 2, "population": 0, "mpLayer": 0 }, "geometry": { "type": "Point", "coordinates": [ -77.0752555999997497, 38.9373331999997419 ] } },
{ "type": "Feature", "properties": { "id": 6060, "osm_id": 158651178, "name": "Garfield Heights", "type": "hamlet", "z_order": 2, "population": 0, "mpLayer": 0 }, "geometry": { "type": "Point", "coordinates": [ -76.9694192999997711, 38.8556681999997195 ] } },
{ "type": "Feature", "properties": { "id": 6128, "osm_id": 158654720, "name": "Lamond Riggs", "type": "hamlet", "z_order": 2, "population": 0, "mpLayer": 0 }, "geometry": { "type": "Point", "coordinates": [ -77.0074763999997884, 38.9664994999997347 ] } },
{ "type": "Feature", "properties": { "id": 6138, "osm_id": 158655059, "name": "Southeast", "type": "hamlet", "z_order": 2, "population": 0, "mpLayer": 0 }, "geometry": { "type": "Point", "coordinates": [ -76.9899755999997808, 38.8806676999997407 ] } },
{ "type": "Feature", "properties": { "id": 6241, "osm_id": 1331788890, "name": "West End", "type": "village", "z_order": 3, "population": 0, "mpLayer": 0 }, "geometry": { "type": "Point", "coordinates": [ -77.0530635999998879, 38.9036569000001009 ] } },
{ "type": "Feature", "properties": { "id": 6437, "osm_id": 1811483411, "name": "Chesapeake Junction", "type": "locality", "z_order": 0, "population": 0, "mpLayer": 0 }, "geometry": { "type": "Point", "coordinates": [ -76.9407835999998753, 38.9036738999998377 ] } }
]
}
